zip_code,latitude,longitude,city,state,county
65441,38.10595,-91.248694,Bourbon,MO,Crawford
34758,28.203877,-81.487992,Kissimmee,FL,Osceola
55745,47.087782,-93.921429,Grand Rapids,MN,Itasca
79225,34.195699,-99.547098,Chillicothe,TX,Hardeman
,,,,,
,,,,,
,,,,,
,,,,,
,,,,,
,,,,,
,,,,,
,,,,,
,,,,,
,,,,,
,,,,,
,,,,,
,,,,,
,,,,,
,,,,,
40622,38.234133,-84.874809,Frankfort,KY,Franklin
96768,20.832664,-156.320242,Makawao,HI,Maui
35766,34.871329,-86.251275,Princeton,AL,Jackson
81251,39.151466,-106.422616,Twin Lakes,CO,Lake
31057,32.438321,-83.905039,Marshallville,GA,Macon
26292,39.138003,-79.481555,Thomas,WV,Tucker
52635,40.988685,-91.785249,Lockridge,IA,Jefferson
88530,31.694842,-106.299987,El Paso,TX,El Paso
45882,40.669681,-84.657861,Rockford,OH,Mercer
30153,33.993766,-85.091511,Rockmart,GA,Polk
56338,45.990074,-93.888513,Hillman,MN,Morrison
17332,39.775037,-76.735116,Hanover,PA,York
38183,35.201738,-89.971538,Germantown,TN,Shelby
88047,32.232085,-106.748341,Mesilla Park,NM,Dona Ana
97011,45.359095,-121.998736,Brightwood,OR,Clackamas
97218,45.575689,-122.605205,Portland,OR,Multnomah
79831,30.436562,-103.70439,Alpine,TX,Brewster
65256,39.148359,-92.425698,Harrisburg,MO,Boone
44815,41.246929,-83.239806,Bettsville,OH,Seneca
23606,37.073526,-76.493022,Newport News,VA,Newport News City
32725,28.900274,-81.245074,Deltona,FL,Volusia
17034,40.329577,-76.834076,Highspire,PA,Dauphin
11021,40.754757,-73.601772,Great Neck,NY,Nassau
61411,40.387329,-90.506582,Adair,IL,Mcdonough
48731,43.826222,-83.141633,Elkton,MI,Huron
20118,39.007548,-77.765553,Middleburg,VA,Loudoun
33476,26.623067,-80.17864,Pahokee,FL,Palm Beach
92782,33.705787,-117.816189,Tustin,CA,Orange
46408,41.544936,-87.375307,Gary,IN,Lake
98851,47.404594,-119.442377,Soap Lake,WA,Grant
13837,42.183045,-74.925617,Shinhopple,NY,Delaware
36273,33.565683,-85.38201,Ranburne,AL,Cleburne
13671,44.308475,-75.66879,Oxbow,NY,Jefferson
20416,38.893311,-77.014647,Washington,DC,District Of Columbia
96109,39.962841,-120.20247,Doyle,CA,Lassen
80754,40.735758,-103.997391,Stoneham,CO,Weld
78373,27.770678,-97.105137,Port Aransas,TX,Nueces
59450,47.861021,-110.471075,Highwood,MT,Chouteau
87734,36.008302,-105.023886,Ocate,NM,Mora
89150,35.927901,-114.972061,Las Vegas,NV,Clark
17845,40.978059,-77.08184,Millmont,PA,Union
10150,40.780751,-73.977182,New York,NY,New York
23870,36.721471,-77.531996,Jarratt,VA,Greensville
13319,43.028469,-75.264008,Chadwicks,NY,Oneida
96775,19.593456,-155.438015,Paauhau,HI,Hawaii
34239,27.310774,-82.520868,Sarasota,FL,Sarasota
51058,42.997133,-95.486296,Sutherland,IA,Obrien
45767,39.523303,-81.064116,New Matamoras,OH,Washington
17748,41.135507,-77.369964,Mc Elhattan,PA,Clinton
3238,43.967542,-71.840883,Glencliff,NH,Grafton
27570,36.37367,-78.110931,Ridgeway,NC,Warren
28240,35.26002,-80.804151,Charlotte,NC,Mecklenburg
2357,42.064499,-71.087091,North Easton,MA,Bristol
12174,42.343986,-73.73477,Stuyvesant Falls,NY,Columbia
40078,37.843697,-85.128804,Willisburg,KY,Washington
35491,32.835692,-87.956884,West Greene,AL,Greene
97732,43.019785,-119.069624,Crane,,Harney
62071,38.6516,-90.163909,National Stock Yards,,Saint Clair
50631,42.882661,-92.306271,Frederika,,Bremer
84076,40.425577,-109.840776,Tridell,,Uintah
78648,29.709928,-97.638005,Luling,,Caldwell
32175,29.022729,-81.172169,Ormond Beach,,Volusia
99125,46.911972,-117.702655,Endicott,,Whitman
66603,39.05215,-95.675758,Topeka,,Shawnee
28330,34.974434,-79.79851,Cordova,,Richmond
728,18.001995,-66.607429,Ponce,,Ponce
17405,40.008647,-76.597187,York,,York
24411,38.091705,-79.322363,Augusta Springs,,Augusta
49425,43.417206,-86.130268,Holton,,Muskegon
82936,41.024224,-110.173336,Lonetree,,Uinta
23670,37.072658,-76.38992,Hampton,,Hampton City
10499,40.851549,-73.840908,Bronx,,Bronx
74804,35.386758,-96.933148,Shawnee,,Pottawatomie
75124,32.289838,-95.791559,Eustace,,Henderson
10275,40.780751,-73.977182,New York,,New York
46375,41.487733,-87.441525,Schererville,,Lake
76886,31.349348,-100.494912,Veribest,,Tom Green
64173,39.035038,-94.356728,Kansas City,,Jackson
33442,26.301407,-80.138516,Deerfield Beach,,Broward
32446,30.799574,-85.229347,Marianna,,Jackson
52594,40.812488,-92.701454,Unionville,,Appanoose
15958,40.39114,-78.735229,Summerhill,,Cambria
54204,44.752379,-87.625888,Brussels,,Door
63951,37.119566,-90.444953,Lowndes,,Wayne
63043,38.723951,-90.447418,Maryland Heights,,Saint Louis
87063,34.650925,-105.880597,Willard,,Torrance
40144,37.802295,-86.414768,Harned,,Breckinridge
38762,33.767126,-90.846978,Mound Bayou,,Bolivar
53593,42.995697,-89.566512,Verona,,Dane
86323,34.755208,-112.171623,Chino Valley,,Yavapai
32739,29.022729,-81.172169,Deltona,,Volusia
2713,41.42178,-70.931309,Cuttyhunk,,Dukes
72532,36.061757,-91.607603,Evening Shade,,Sharp
34231,27.227589,-82.432111,Sarasota,,Sarasota
18924,40.308116,-75.358575,Franconia,,Montgomery
98569,47.071971,-124.152461,Ocean Shores,,Grays Harbor
20103,38.996242,-77.449952,Dulles,,Loudoun
25324,38.296818,-81.554655,Charleston,,Kanawha
28571,35.053819,-76.723675,Oriental,,Pamlico
6066,41.8372,-72.454917,Vernon Rockville,,Tolland
56073,44.259924,-94.511407,New Ulm,,Brown
84539,39.534651,-110.398832,Sunnyside,,Carbon
37683,36.451666,-81.823043,Mountain City,,Johnson
65305,38.731819,-93.573071,Whiteman Air Force Base,,Johnson
16234,41.202325,-79.453751,Limestone,,Clarion
37814,36.224258,-83.30984,Morristown,,Hamblen
47734,37.997128,-87.574963,Evansville,,Vanderburgh
79351,32.977027,-101.937148,Odonnell,,Lynn
35461,33.413277,-88.209276,Ethelsville,,Pickens
47541,38.249617,-87.007734,Holland,,Dubois
58741,48.305738,-100.67856,Granville,,Mchenry
38542,36.323952,-85.203098,Allred,,Overton
55763,47.264753,-92.181209,Makinen,,Saint Louis
66642,39.042939,-95.769657,Topeka,,Shawnee
67761,38.916183,-101.762678,Wallace,,Wallace
75959,31.373062,-93.821948,Milam,,Sabine
16631,40.493522,-78.368229,Curryville,,Blair
4079,43.78105,-69.995537,Harpswell,,Cumberland
68452,40.524526,-98.051184,Ong,,Clay
41092,38.824585,-84.692136,Verona,,Boone
50369,41.672687,-93.572173,Des Moines,,Polk
90704,33.786594,-118.298662,Avalon,,Los Angeles
87421,36.750745,-108.203152,Waterflow,,San Juan
25686,37.743063,-82.10801,Newtown,,Mingo
60173,42.079837,-88.046403,Schaumburg,,Cook
7444,41.008797,-74.402663,Pompton Plains,,Morris
29729,34.692493,-81.003877,Richburg,,Chester
42367,37.242948,-87.154898,Powderly,,Muhlenberg
59832,46.687633,-113.215445,Drummond,,Granite
30612,33.944339,-83.38908,Athens,,Clarke
8530,40.37936,-74.901535,Lambertville,,Hunterdon
935,18.410462,-66.060533,San Juan,,San Juan
6041,41.794681,-72.564832,Manchester,,Hartford
41250,37.815648,-82.492731,Pilgrim,,Martin
36586,31.58842,-87.840875,Walker Springs,,Clarke
67663,39.248844,-99.316373,Plainville,,Rooks
8033,39.876313,-75.033414,Haddonfield,,Camden
35671,34.679634,-86.962519,Tanner,,Limestone
65236,39.425365,-93.128077,Brunswick,,Chariton
18072,40.841099,-75.258376,Pen Argyl,,Northampton
54912,44.416326,-88.464873,Appleton,,Outagamie
59030,45.114735,-110.809991,Gardiner,,Park
12987,44.145678,-73.815204,Upper Jay,,Essex
47006,39.19017,-85.229151,Batesville,,Ripley
68122,41.353003,-96.07026,Omaha,,Douglas
97708,44.001834,-120.94952,Bend,,Deschutes
25961,37.975595,-80.426874,Crichton,,Greenbrier
47855,39.183335,-87.299448,Hymera,,Sullivan
57007,44.369696,-96.790705,Brookings,,Brookings
6108,41.779799,-72.621365,East Hartford,,Hartford
17731,41.432901,-76.516887,Eagles Mere,,Sullivan
73127,35.475459,-97.600817,Oklahoma City,,Oklahoma
47733,37.997128,-87.574963,Evansville,,Vanderburgh
94160,37.784827,-122.727802,San Francisco,,San Francisco
13681,44.439964,-75.377707,Richville,,Saint Lawrence
64648,39.988049,-93.838563,Jamesport,,Daviess
50703,42.549802,-92.258493,Waterloo,,Black Hawk
79117,35.308889,-101.843033,Amarillo,,Potter
26273,38.696059,-79.974846,Huttonsville,,Randolph
7091,40.665651,-74.299692,Westfield,,Union
62979,37.796978,-88.243498,Ridgway,,Gallatin
50037,42.036552,-93.931686,Boone,,Boone
75448,33.356865,-95.584162,Klondike,,Delta
71728,34.010316,-93.097627,Curtis,,Clark
62089,39.121757,-89.494172,Taylor Springs,,Montgomery
48633,43.958329,-84.919332,Lake George,,Clare
19602,40.326546,-75.915919,Reading,,Berks
71261,32.793556,-91.727614,Mer Rouge,,Morehouse
66043,39.233204,-94.883026,Lansing,,Leavenworth
74155,36.139826,-96.029725,Tulsa,,Tulsa
32709,28.486379,-81.009032,Christmas,,Orange
76179,32.907394,-97.425681,Fort Worth,,Tarrant
27374,35.781848,-80.203546,Welcome,,Davidson
88518,31.694842,-106.299987,El Paso,,El Paso
83671,45.889314,-115.557407,Warren,,Idaho
95548,41.609872,-124.054355,Klamath,,Del Norte
56039,43.659429,-94.440978,Granada,,Martin
58006,47.102334,-97.140334,Arthur,,Cass
52132,43.168758,-91.867666,Calmar,,Winneshiek
56020,43.62105,-93.548214,Conger,,Freeborn
28401,34.163503,-77.95481,Wilmington,,New Hanover
28229,35.26002,-80.804151,Charlotte,,Mecklenburg
90660,33.985812,-118.088787,Pico Rivera,,Los Angeles
72058,35.211744,-92.376242,Greenbrier,,Faulkner
76384,34.155524,-99.284002,Vernon,,Wilbarger
32361,30.342161,-83.840177,Wacissa,,Jefferson
4625,44.641873,-68.391481,Cranberry Isles,,Hancock
18431,41.564258,-75.265643,Honesdale,,Wayne
8885,40.576372,-74.831105,Stanton,,Hunterdon
37321,35.556414,-84.979171,Dayton,,Rhea
36675,30.658865,-88.177975,Mobile,,Mobile
44024,41.572432,-81.157142,Chardon,,Geauga
32952,28.276389,-80.656825,Merritt Island,,Brevard
62440,39.418401,-88.270006,Lerna,,Coles
63101,38.631501,-90.19231,Saint Louis,,Saint Louis City
36272,33.827328,-85.795257,Piedmont,,Calhoun
36028,31.518541,-86.354365,Dozier,,Crenshaw
56090,43.925892,-94.233683,Vernon Center,,Blue Earth
50362,41.672687,-93.572173,Des Moines,,Polk
54941,43.85627,-88.985883,Green Lake,,Green Lake
37015,36.297807,-87.083657,Ashland City,,Cheatham
5253,43.182502,-73.065443,East Dorset,,Bennington
45210,39.11451,-84.511093,Cincinnati,,Hamilton
23274,37.524246,-77.493157,Richmond,,Richmond City
15484,39.893625,-79.785642,Uledi,,Fayette
77048,29.625781,-95.340665,Houston,,Harris
16650,40.108984,-78.279287,Hopewell,,Bedford
99578,60.314735,-163.118947,Eek,,Bethel
94240,38.377411,-121.444429,Sacramento,,Sacramento
72024,34.7309,-91.75149,Carlisle,,Lonoke
37185,36.032353,-87.82746,Waverly,,Humphreys
16621,40.1999,-78.140812,Broad Top,,Huntingdon
45503,39.963784,-83.77139,Springfield,,Clark
72653,36.318679,-92.372153,Mountain Home,,Baxter
15337,39.937962,-80.001496,Graysville,,Greene
21690,39.034637,-76.092127,Chestertown,,Queen Annes
79314,33.606603,-102.825745,Bledsoe,,Cochran
80420,39.297972,-106.063548,Alma,,Park
79009,34.519042,-102.784639,Bovina,,Parmer
15344,39.870635,-80.211335,Jefferson,,Greene
26629,38.580977,-80.693054,Little Birch,,Braxton
47708,37.976692,-87.564842,Evansville,,Vanderburgh
43156,39.555583,-82.782171,Tarlton,,Pickaway
17583,39.972349,-76.28733,West Willow,,Lancaster
80214,39.743636,-105.064336,Denver,,Jefferson
55480,45.015914,-93.47188,Minneapolis,,Hennepin
29492,32.96678,-79.852835,Charleston,,Berkeley
61470,40.591144,-90.512266,Prairie City,,Mcdonough
1331,42.547302,-72.183903,Athol,,Worcester
80160,39.738752,-104.408349,Littleton,,Arapahoe
4667,45.013348,-67.097043,Perry,,Washington
35298,33.544622,-86.929208,Birmingham,,Jefferson
63737,37.663253,-89.652912,Brazeau,,Perry
68322,40.335959,-97.56495,Bruning,,Thayer
17364,39.933775,-76.905317,Thomasville,,York
66775,37.675371,-95.178823,Stark,,Neosho
32417,30.243832,-85.916988,Panama City,,Bay
28663,36.527637,-81.301935,Piney Creek,,Alleghany
63771,37.056528,-89.670685,Oran,,Scott
73738,36.436334,-97.580931,Garber,,Garfield
79698,32.475074,-99.73484,Abilene,,Taylor
91944,33.016928,-116.846046,La Mesa,,San Diego
15712,40.781719,-78.853612,Arcadia,,Indiana
99606,59.752463,-154.823629,Iliamna,,Lake And Peninsula
19701,39.594736,-75.693903,Bear,,New Castle
88220,32.416897,-104.46539,Carlsbad,,Eddy
23389,37.656158,-75.848807,Harborton,,Accomack
85045,33.302168,-112.122581,Phoenix,,Maricopa
83402,43.51824,-112.134734,Idaho Falls,,Bonneville
40383,37.998762,-84.737666,Versailles,,Woodford
21205,39.302757,-76.567987,Baltimore,,Baltimore City
23838,37.333271,-77.634265,Chesterfield,,Chesterfield
47660,38.306265,-87.514796,Oakland City,,Gibson
85628,31.531998,-110.909305,Nogales,,Santa Cruz
97140,45.371478,-122.874613,Sherwood,,Washington
86024,35.630842,-112.052427,Happy Jack,,Coconino
17310,39.890605,-77.356642,Cashtown,,Adams
14515,43.257819,-77.735079,North Greece,,Monroe
45073,39.440956,-84.575746,Monroe,,Butler
52162,43.175423,-91.507751,Postville,,Allamakee
17885,40.978059,-77.08184,Weikert,,Union
46103,39.736926,-86.483474,Amo,,Hendricks
99649,57.528787,-157.485781,Pilot Point,,Lake And Peninsula
45316,39.795971,-83.819766,Clifton,,Greene
27712,36.091848,-78.908043,Durham,,Durham
36830,32.547542,-85.468222,Auburn,,Lee
5146,43.179936,-72.605636,Grafton,,Windham
71064,32.768412,-93.647824,Plain Dealing,,Bossier
23881,37.169453,-76.967517,Spring Grove,,Surry
25777,38.413384,-82.277401,Huntington,,Cabell
81014,38.128626,-104.552299,Pueblo,,Pueblo
44445,40.843906,-80.614381,New Waterford,,Columbiana
49749,45.447209,-84.578019,Indian River,,Cheboygan
74189,36.139826,-96.029725,Tulsa,,Tulsa
1266,42.360482,-73.265354,West Stockbridge,,Berkshire
70640,30.35502,-92.946269,Fenton,,Jefferson Davis
26404,39.346214,-80.313875,Meadowbrook,,Harrison
23693,37.152812,-76.44791,Yorktown,,York
99001,47.643803,-117.59205,Airway Heights,,Spokane
97311,44.943841,-123.028607,Salem,,Marion
24585,36.801515,-78.883933,Republican Grove,,Halifax
63436,39.508451,-91.53793,Center,,Ralls
26150,39.189677,-81.513911,Mineral Wells,,Wood
58038,47.072418,-96.96915,Grandin,,Cass
58402,46.97882,-98.960032,Jamestown,,Stutsman
70174,30.032997,-89.882564,New Orleans,,Orleans
19468,40.20894,-75.490215,Royersford,,Montgomery
92341,34.241137,-116.938548,Green Valley Lake,,San Bernardino
91508,33.786594,-118.298662,Burbank,,Los Angeles
43624,41.654599,-83.546233,Toledo,,Lucas
10041,40.703801,-74.009814,New York,,New York
24435,37.875396,-79.298708,Fairfield,,Rockbridge
33323,26.139766,-80.359157,Fort Lauderdale,,Broward
37998,35.935134,-83.750258,Knoxville,,Knox
25107,38.296818,-81.554655,Hernshaw,,Kanawha
97130,45.736552,-123.923108,Manzanita,,Tillamook
96825,21.670926,-157.940731,Honolulu,,Honolulu
33825,27.473059,-81.464053,Avon Park,,Highlands
48393,42.520533,-83.549145,Wixom,,Oakland
36916,32.209362,-88.048983,Pennington,,Choctaw
77088,29.83399,-95.434241,Houston,,Harris
20434,38.893311,-77.014647,Washington,,District Of Columbia
24543,36.592679,-79.410983,Danville,,Danville City
91917,33.016928,-116.846046,Dulzura,,San Diego
55041,44.421753,-92.232221,Lake City,,Wabasha
94062,37.424539,-122.295997,Redwood City,CA,San Mateo
72466,36.057939,-91.240065,Smithville,AR,Lawrence
23154,37.418242,-76.508402,Schley,VA,Gloucester
17120,40.265689,-76.882745,Harrisburg,PA,Dauphin
83463,44.968059,-113.816735,Gibbonsville,ID,Lemhi
738,18.359381,-65.611361,Fajardo,PR,Fajardo
56465,46.539308,-94.134385,Merrifield,MN,Crow Wing
28328,35.006676,-78.415415,Clinton,NC,Sampson
66533,39.158392,-95.959031,Rossville,KS,Shawnee
92196,33.016928,-116.846046,San Diego,CA,San Diego
55012,45.448211,-92.789369,Center City,MN,Chisago
30063,33.965294,-84.511209,Marietta,GA,Cobb
42411,37.201173,-87.988003,Fredonia,KY,Caldwell
61240,41.401019,-90.575785,Coal Valley,IL,Rock Island
94140,37.784827,-122.727802,San Francisco,CA,San Francisco
83533,45.889314,-115.557407,Greencreek,ID,Idaho
61330,41.454193,-89.448445,La Moille,IL,Bureau
78591,26.749896,-98.583016,Santa Elena,TX,Starr
29227,34.005992,-80.970766,Columbia,SC,Richland
76305,33.973736,-98.512878,Wichita Falls,TX,Wichita
7660,40.853449,-74.021233,Ridgefield Park,NJ,Bergen
6234,41.847758,-71.983412,Brooklyn,CT,Windham
61883,40.103625,-87.744819,Westville,IL,Vermilion
75017,32.767268,-96.777626,Irving,TX,Dallas
71415,32.055505,-92.164903,Clarks,LA,Caldwell
62264,38.30799,-89.921695,New Athens,IL,Saint Clair
52042,42.756961,-91.34453,Edgewood,IA,Clayton
50118,41.439093,-93.36963,Hartford,IA,Warren
48264,42.239933,-83.150823,Detroit,MI,Wayne
73440,33.998567,-96.758835,Lebanon,OK,Marshall
24634,37.287992,-82.027408,Pilgrims Knob,VA,Buchanan
15429,40.008082,-79.939234,Denbo,PA,Washington
19135,40.017061,-75.098618,Philadelphia,PA,Philadelphia
44306,41.041805,-81.479986,Akron,OH,Summit
39332,32.323107,-89.083928,Hickory,MS,Newton
59010,46.176296,-107.33875,Bighorn,MT,Treasure
67747,39.046409,-101.063728,Monument,KS,Logan
737,18.102967,-66.139274,Cayey,PR,Cayey
44676,40.71617,-82.028231,Shreve,OH,Wayne
36111,32.342438,-86.267317,Montgomery,AL,Montgomery
17026,40.456193,-76.434639,Fredericksburg,PA,Lebanon
19442,40.146549,-75.617739,Kimberton,PA,Chester
38926,33.689476,-89.758302,Elliott,MS,Grenada
99015,47.653568,-117.431742,Freeman,WA,Spokane
29442,33.403693,-79.226361,Georgetown,SC,Georgetown
38966,33.898064,-90.335055,Webb,MS,Tallahatchie
93219,35.875918,-119.262323,Earlimart,CA,Tulare
91302,33.786594,-118.298662,Calabasas,CA,Los Angeles
62320,40.018202,-91.060449,Camp Point,IL,Adams
32868,28.566338,-81.260818,Orlando,FL,Orange
76016,32.771419,-97.291484,Arlington,TX,Tarrant
20265,38.893311,-77.014647,Washington,DC,District Of Columbia
52073,42.5854,-90.811885,Sherrill,IA,Dubuque
83644,43.577401,-116.590338,Middleton,ID,Canyon
34108,26.241595,-81.807056,Naples,FL,Collier
48063,42.889238,-82.667478,Columbus,MI,Saint Clair
62065,39.13427,-90.69376,Michael,IL,Calhoun
94289,38.377411,-121.444429,Sacramento,CA,Sacramento
65103,38.530921,-92.249342,Jefferson City,MO,Cole
33013,25.860023,-80.271571,Hialeah,FL,Miami-Dade
78931,29.849283,-96.313271,Bleiblerville,TX,Austin
5486,44.738156,-73.306352,South Hero,VT,Grand Isle
28406,34.088079,-77.852599,Wilmington,NC,New Hanover
8004,39.760048,-74.866534,Atco,NJ,Camden
1655,42.364807,-71.896868,Worcester,MA,Worcester
76112,32.77213,-97.217742,Fort Worth,TX,Tarrant
33841,27.742463,-81.723311,Fort Meade,FL,Polk
68648,41.375782,-96.811409,Morse Bluff,NE,Saunders
72454,36.378787,-90.313223,Piggott,AR,Clay
96919,13.444257,144.786297,Agana Heights,GU,Guam
70454,30.467958,-90.393867,Ponchatoula,LA,Tangipahoa
49919,46.526495,-88.584598,Covington,MI,Baraga
58644,47.402085,-102.622139,Marshall,ND,Dunn
21221,39.296007,-76.559787,Essex,MD,Baltimore
80921,39.055054,-104.89122,Colorado Springs,CO,El Paso
48765,44.110526,-83.701888,Turner,MI,Arenac
69026,40.176507,-100.476977,Danbury,NE,Red Willow
30355,33.844371,-84.47405,Atlanta,GA,Fulton
15666,40.202211,-79.609982,Mount Pleasant,PA,Westmoreland
49081,42.171777,-85.617824,Portage,MI,Kalamazoo
71835,33.761471,-93.42928,Emmet,AR,Nevada
3272,43.310279,-71.662928,South Newbury,NH,Merrimack
56278,45.376691,-96.516214,Ortonville,MN,Big Stone
67055,37.78335,-97.205419,Greenwich,KS,Sedgwick
28804,35.624512,-82.589146,Asheville,NC,Buncombe
55063,45.949599,-92.892997,Pine City,MN,Pine
85751,32.161972,-110.714678,Tucson,AZ,Pima
95318,37.622232,-119.861258,El Portal,CA,Mariposa
42345,37.20083,-87.164385,Greenville,KY,Muhlenberg
53812,42.859325,-90.791337,Kieler,WI,Grant
45788,39.430738,-81.44512,Whipple,OH,Washington
64601,39.795225,-93.588876,Chillicothe,MO,Livingston
28531,34.873922,-76.587097,Harkers Island,NC,Carteret
23269,37.524246,-77.493157,Richmond,VA,Richmond City
40210,38.23207,-85.788702,Louisville,KY,Jefferson
73537,34.472021,-99.647324,Eldorado,OK,Jackson
37180,35.622306,-86.573246,Unionville,TN,Bedford
59834,47.065558,-114.251384,Frenchtown,MT,Missoula
4769,46.715072,-68.012557,Presque Isle,ME,Aroostook
1581,42.255222,-71.845865,Westborough,MA,Worcester
48812,43.413761,-84.975271,Cedar Lake,MI,Montcalm
72110,35.169237,-92.817379,Morrilton,AR,Conway
33684,27.871964,-82.438841,Tampa,FL,Hillsborough
95763,38.377411,-121.444429,Folsom,CA,Sacramento
56470,46.984699,-95.09935,Park Rapids,MN,Hubbard
23830,37.021522,-77.453348,Carson,VA,Dinwiddie
47616,38.190994,-87.91701,Griffin,IN,Posey
30315,33.697257,-84.383725,Atlanta,GA,Fulton
31546,31.531938,-81.804924,Jesup,GA,Wayne
63180,38.6531,-90.243462,Saint Louis,MO,Saint Louis City
6753,41.828067,-73.332345,Cornwall,CT,Litchfield
99686,61.68557,-145.775152,Valdez,AK,Valdez Cordova
91942,32.781084,-117.018638,La Mesa,CA,San Diego
25926,37.787252,-81.195122,Sprague,WV,Raleigh
73773,36.241968,-97.911828,Waukomis,OK,Garfield
36266,33.340127,-85.789238,Lineville,AL,Clay
97111,45.282393,-123.218624,Carlton,OR,Yamhill
87735,36.008302,-105.023886,Ojo Feliz,NM,Mora
79016,34.96539,-101.895894,Canyon,TX,Randall
54742,44.762892,-91.306304,Fall Creek,WI,Eau Claire
33025,26.142322,-80.231595,Hollywood,FL,Broward
35139,33.711096,-86.975856,Sayre,AL,Jefferson
87701,35.551539,-104.985643,Las Vegas,NM,San Miguel
13794,42.402816,-76.036582,Killawog,NY,Broome
94506,37.832075,-121.916718,Danville,CA,Contra Costa
4853,44.113472,-68.855722,North Haven,ME,Knox
31191,33.844371,-84.47405,Atlanta,GA,Fulton
66771,37.545144,-95.183687,Saint Paul,KS,Neosho
71363,31.596272,-91.77941,Rhinehart,LA,Catahoula
19975,38.550784,-75.330307,Selbyville,DE,Sussex
60950,41.173292,-87.87675,Manteno,IL,Kankakee
19043,39.899562,-75.307731,Holmes,PA,Delaware
61760,40.838957,-89.066126,Minonk,IL,Woodford
17040,40.34253,-77.304476,Landisburg,PA,Perry
66425,39.821847,-95.727038,Fairview,KS,Brown
14435,42.723231,-77.668291,Conesus,NY,Livingston
43085,40.040113,-82.897222,Columbus,OH,Franklin
18245,40.722587,-76.229623,Quakake,PA,Schuylkill
32157,29.45817,-81.591447,Lake Como,FL,Putnam
8570,40.430006,-74.417344,Cranbury,NJ,Middlesex
63442,40.453333,-92.1474,Granger,MO,Scotland
94283,38.377411,-121.444429,Sacramento,CA,Sacramento
63377,39.076463,-90.996268,Silex,MO,Lincoln
21028,39.563172,-76.236427,Churchville,MD,Harford
49683,44.58678,-85.931969,Thompsonville,MI,Benzie
74437,35.462159,-96.012229,Henryetta,OK,Okmulgee
55336,44.770238,-94.195685,Glencoe,MN,Mcleod
71656,33.590601,-91.732829,Monticello,AR,Drew
84718,37.844777,-111.308206,Cannonville,UT,Garfield
15563,40.094802,-78.965817,Stoystown,PA,Somerset
65069,38.794225,-91.573653,Rhineland,MO,Montgomery
38070,35.942019,-89.243405,Tigrett,TN,Dyer
23968,36.723976,-78.530076,Skipwith,VA,Mecklenburg
6749,41.365709,-72.927507,Waterbury,CT,New Haven
25708,38.413384,-82.277401,Huntington,WV,Cabell
4363,44.414056,-69.751913,Windsor,ME,Kennebec
63472,40.372995,-91.61903,Wayland,MO,Clark
83455,43.63848,-111.132302,Victor,ID,Teton
74107,36.076795,-95.954871,Tulsa,OK,Tulsa
50254,40.978688,-94.10039,Thayer,IA,Union
52040,42.421746,-91.035655,Dyersville,IA,Dubuque
73764,35.945046,-97.942225,Omega,OK,Kingfisher
56136,44.460984,-96.33771,Hendricks,MN,Lincoln
80544,40.177043,-105.275045,Niwot,CO,Boulder
5440,44.93606,-73.289065,Alburg,VT,Grand Isle
89513,39.631922,-119.293722,Reno,NV,Washoe
28302,35.034307,-78.908828,Fayetteville,NC,Cumberland
30109,33.653355,-85.136227,Bowdon Junction,GA,Carroll
65692,36.596757,-91.645491,Koshkonong,MO,Oregon
27626,35.797692,-78.625265,Raleigh,NC,Wake
24468,38.385967,-79.559157,Mustoe,VA,Highland
80102,39.869384,-104.458336,Bennett,CO,Adams
27515,36.05251,-79.107692,Chapel Hill,NC,Orange
30520,34.355933,-83.152947,Canon,GA,Franklin
12977,44.145678,-73.815204,Ray Brook,NY,Essex
40730,36.703868,-84.141486,Emlyn,KY,Whitley
76140,32.771419,-97.291484,Fort Worth,TX,Tarrant
38088,35.201738,-89.971538,Cordova,TN,Shelby
43976,40.314449,-81.070506,Hopedale,OH,Harrison
18322,41.054711,-75.331879,Brodheadsville,PA,Monroe
59752,45.375515,-111.45624,Three Forks,MT,Gallatin
49046,42.532723,-85.384885,Delton,MI,Barry
78589,26.214873,-98.161978,San Juan,TX,Hidalgo
75151,32.062395,-96.473459,Corsicana,TX,Navarro
97538,42.265435,-123.551451,Selma,OR,Josephine
77340,30.644755,-95.579836,Huntsville,TX,Walker
83543,46.296282,-116.264274,Nezperce,ID,Lewis
93241,35.405369,-118.699098,Lamont,CA,Kern
71658,33.261721,-91.649931,Montrose,AR,Ashley
13643,44.014698,-75.728357,Great Bend,NY,Jefferson
14747,42.152725,-79.111065,Kennedy,NY,Chautauqua
26575,39.575518,-80.666712,Hundred,WV,Wetzel
32512,30.394327,-87.299129,Pensacola,FL,Escambia
99825,58.331798,-135.181256,Elfin Cove,AK,Skagway Hoonah Angoon
3232,43.967542,-71.840883,East Hebron,NH,Grafton
61914,39.638,-88.75367,Bethany,IL,Moultrie
83713,43.634002,-116.341948,Boise,ID,Ada
29566,33.816472,-78.758018,Little River,SC,Horry
34145,25.938768,-81.696751,Marco Island,FL,Collier
58784,48.345765,-102.418466,Stanley,ND,Mountrail
14125,43.087438,-78.269677,Oakfield,NY,Genesee
95629,38.510343,-120.708029,Fiddletown,CA,Amador
40150,37.90878,-85.688029,Lebanon Junction,KY,Bullitt
4984,44.670079,-70.196855,Temple,ME,Franklin
53827,43.035813,-90.853002,Woodman,WI,Grant
50397,41.672687,-93.572173,Des Moines,IA,Polk
74549,35.025939,-94.618339,Honobia,OK,Le Flore
80106,39.208967,-104.505121,Elbert,CO,Elbert
12306,42.816438,-74.052713,Schenectady,NY,Schenectady
65572,37.81186,-92.217391,Swedeborg,MO,Pulaski
31776,31.172696,-83.792379,Moultrie,GA,Colquitt
70114,29.929605,-90.013164,New Orleans,LA,Orleans
25981,37.975595,-80.426874,Quinwood,WV,Greenbrier
92672,33.568923,-117.616082,San Clemente,CA,Orange
2559,41.694771,-70.622769,Pocasset,MA,Barnstable
62477,39.236906,-87.674977,West Union,IL,Clark
47848,39.039488,-87.30662,Dugger,IN,Sullivan
53713,43.037167,-89.397066,Madison,WI,Dane
43977,40.115634,-81.090224,Flushing,OH,Belmont
65335,38.503854,-93.323687,Ionia,MO,Benton
28466,34.76743,-77.940027,Wallace,NC,Duplin
44661,40.593256,-82.11676,Nashville,OH,Holmes
80535,40.589014,-105.262822,Laporte,CO,Larimer
43519,41.422158,-84.396619,Evansport,OH,Defiance
25124,38.475369,-81.880455,Liberty,WV,Putnam
22749,38.620549,-78.191528,Woodville,VA,Rappahannock
11550,40.700201,-73.620872,Hempstead,NY,Nassau
19339,39.934047,-75.405987,Concordville,PA,Delaware
95667,38.730224,-120.797149,Placerville,CA,El Dorado
41546,37.519774,-82.301252,Mc Veigh,KY,Pike
78221,29.259178,-98.453688,San Antonio,TX,Bexar
86031,35.285746,-110.288704,Indian Wells,AZ,Navajo
82620,42.530223,-106.759971,Alcova,WY,Natrona
94155,37.784827,-122.727802,San Francisco,CA,San Francisco
83128,43.030327,-110.884515,Alpine,WY,Lincoln
58621,46.963728,-103.898766,Beach,ND,Golden Valley
30905,33.412986,-82.133732,Augusta,GA,Richmond
28615,36.464673,-81.596886,Creston,NC,Ashe
15365,40.16113,-80.378093,Taylorstown,PA,Washington
62689,39.539389,-89.762086,Thayer,IL,Sangamon
70172,30.032997,-89.882564,New Orleans,LA,Orleans
91208,33.786594,-118.298662,Glendale,CA,Los Angeles
7838,40.888834,-74.937714,Great Meadows,NJ,Warren
45338,39.780916,-84.567331,Lewisburg,OH,Preble
46947,40.77927,-86.375168,Logansport,IN,Cass
65110,38.530921,-92.249342,Jefferson City,MO,Cole
10117,40.780751,-73.977182,New York,NY,New York
85038,33.276539,-112.18717,Phoenix,AZ,Maricopa
4558,43.896727,-69.509282,Pemaquid,ME,Lincoln
71279,32.49191,-91.856326,Start,LA,Richland
50070,41.531827,-94.205252,Dexter,IA,Dallas
28711,35.564616,-82.461196,Black Mountain,NC,Buncombe
45242,39.244659,-84.345489,Cincinnati,OH,Hamilton
71161,32.607556,-93.75256,Shreveport,LA,Caddo
42455,37.570081,-87.636436,Sebree,KY,Webster
66712,37.557295,-94.694906,Arma,KS,Crawford
36910,32.004227,-88.200738,Jachin,AL,Choctaw
11563,40.657602,-73.672574,Lynbrook,NY,Nassau
99688,61.896608,-150.003758,Willow,AK,Matanuska Susitna
58039,46.160427,-96.843465,Great Bend,ND,Richland
36475,31.371175,-87.298377,Repton,AL,Conecuh
17743,41.77197,-76.521266,Leroy,PA,Bradford
11425,40.651378,-73.870779,Jamaica,NY,Queens
13865,42.069103,-75.644078,Windsor,NY,Broome
49757,45.853721,-84.618203,Mackinac Island,MI,Mackinac
37069,35.979553,-86.910623,Franklin,TN,Williamson
29905,32.340119,-80.689041,Beaufort,SC,Beaufort
82933,41.295023,-110.399094,Fort Bridger,WY,Uinta
11977,40.922326,-72.637078,Westhampton,NY,Suffolk
85214,33.276539,-112.18717,Mesa,AZ,Maricopa
73019,35.208566,-97.44451,Norman,OK,Cleveland
31717,30.888734,-84.617836,Bainbridge,GA,Decatur
70576,30.756671,-92.411722,Pine Prairie,LA,Evangeline
95334,37.358769,-120.750082,Livingston,CA,Merced
96122,39.800456,-120.542224,Portola,CA,Plumas
10176,40.75557,-73.978877,New York,NY,New York
45227,39.15926,-84.37284,Cincinnati,OH,Hamilton
56481,46.506528,-94.967564,Verndale,MN,Wadena
24033,37.274175,-79.95786,Roanoke,VA,Roanoke City
72402,35.80881,-90.652887,Jonesboro,AR,Craighead
39664,31.268945,-90.670185,Smithdale,MS,Amite
85255,33.276539,-112.18717,Scottsdale,AZ,Maricopa
21520,39.58935,-79.230969,Accident,MD,Garrett
62424,39.049843,-88.576045,Dieterich,IL,Effingham
15554,39.981413,-78.611595,New Paris,PA,Bedford
79107,35.273627,-101.744686,Amarillo,TX,Potter
28681,35.916914,-81.209656,Taylorsville,NC,Alexander
93118,34.262834,-119.848555,Goleta,CA,Santa Barbara
2826,41.982417,-71.600848,Glendale,RI,Providence
80916,38.81033,-104.718555,Colorado Springs,CO,El Paso
20211,38.893311,-77.014647,Washington,DC,District Of Columbia
20577,38.900758,-77.034455,Washington,DC,District Of Columbia
3749,43.579573,-72.08541,Enfield Center,NH,Grafton
92507,33.752886,-116.055617,Riverside,CA,Riverside
29484,33.00234,-80.226694,Summerville,SC,Dorchester
43125,39.84692,-82.88487,Groveport,OH,Franklin
13081,42.876886,-76.631117,King Ferry,NY,Cayuga
78377,28.281826,-97.297783,Refugio,TX,Refugio
33337,26.129013,-80.260071,Fort Lauderdale,FL,Broward
4629,44.641873,-68.391481,East Blue Hill,ME,Hancock
77501,29.83399,-95.434241,Pasadena,TX,Harris
83867,47.498078,-115.965732,Silverton,ID,Shoshone
72066,34.785525,-91.573785,Hickory Plains,AR,Prairie
4054,43.276341,-70.597752,Moody,ME,York
27316,35.714279,-79.646945,Ramseur,NC,Randolph
49715,46.389131,-84.698136,Brimley,MI,Chippewa
15320,39.918913,-79.98532,Carmichaels,PA,Greene
59020,45.023373,-109.90697,Cooke City,MT,Park
84030,40.160179,-109.547839,Gusher,UT,Uintah
46701,41.376028,-85.413862,Albion,IN,Noble
7922,40.675451,-74.422196,Berkeley Heights,NJ,Union
95305,37.822025,-120.241685,Big Oak Flat,CA,Tuolumne
68802,40.872457,-98.50213,Grand Island,NE,Hall
81001,38.344117,-104.427776,Pueblo,CO,Pueblo
51351,43.367677,-95.208331,Milford,IA,Dickinson
88427,34.7321,-103.653955,Mc Alister,NM,Quay
38841,34.336606,-89.010873,Ecru,MS,Pontotoc
60542,41.807369,-88.335182,North Aurora,IL,Kane
55052,44.328365,-93.342652,Morristown,MN,Rice
83554,45.889314,-115.557407,White Bird,ID,Idaho
12192,42.397703,-73.834836,West Coxsackie,NY,Greene
27831,36.482084,-77.568112,Garysburg,NC,Northampton
37663,36.47152,-82.4834,Kingsport,TN,Sullivan
6145,41.791776,-72.718832,Hartford,CT,Hartford
32084,29.849505,-81.332552,Saint Augustine,FL,Saint Johns
53091,43.483635,-88.450107,Theresa,WI,Dodge
33444,26.457598,-80.081614,Delray Beach,FL,Palm Beach
23505,36.902947,-76.278813,Norfolk,VA,Norfolk City
95817,38.549232,-121.452264,Sacramento,CA,Sacramento
89070,35.927901,-114.972061,Indian Springs,NV,Clark
54207,44.091021,-87.990241,Collins,WI,Manitowoc
61254,41.437746,-90.158163,Geneseo,IL,Henry
49067,42.008635,-85.857579,Marcellus,MI,Cass
26662,38.318389,-80.834152,Canvas,WV,Nicholas
15629,40.598047,-79.562383,East Vandergrift,PA,Westmoreland
33710,27.788853,-82.699621,Saint Petersburg,FL,Pinellas
23126,37.701823,-76.916248,Newtown,VA,King And Queen
58267,47.759107,-97.603773,Northwood,ND,Grand Forks
87315,34.962954,-108.056457,Fence Lake,NM,Cibola
10035,40.801913,-73.9347,New York,NY,New York
41035,38.691789,-84.650966,Dry Ridge,KY,Grant
94707,37.892675,-122.27608,Berkeley,CA,Alameda
32537,30.741965,-86.655208,Milligan,FL,Okaloosa
6437,41.338847,-72.690089,Guilford,CT,New Haven
72533,35.91896,-92.127207,Fifty Six,AR,Stone
46808,41.093898,-85.184121,Fort Wayne,IN,Allen
71858,33.70082,-93.294126,Rosston,AR,Nevada
40257,38.188962,-85.676819,Louisville,KY,Jefferson
7106,40.74245,-74.23114,Newark,NJ,Essex
84158,40.768996,-111.762115,Salt Lake City,UT,Salt Lake
62761,39.852361,-89.541017,Springfield,IL,Sangamon
58054,46.455974,-97.636917,Lisbon,ND,Ransom
85607,31.604081,-109.866187,Douglas,AZ,Cochise
33705,27.743555,-82.64182,Saint Petersburg,FL,Pinellas
46383,41.454731,-87.065565,Valparaiso,IN,Porter
15112,40.434436,-80.024817,East Pittsburgh,PA,Allegheny
39211,32.366844,-90.123786,Jackson,MS,Hinds
92061,33.016928,-116.846046,Pauma Valley,CA,San Diego
25279,38.824924,-81.70665,Statts Mills,WV,Jackson
53543,42.991078,-90.133812,Highland,WI,Iowa
20711,38.802263,-76.645735,Lothian,MD,Anne Arundel
71037,32.585005,-93.533104,Haughton,LA,Bossier
18502,41.350303,-75.689965,Scranton,PA,Lackawanna
13028,43.310494,-76.135765,Bernhards Bay,NY,Oswego
77708,30.148461,-94.172481,Beaumont,TX,Jefferson
56069,44.349609,-93.580277,Montgomery,MN,Le Sueur
86545,35.237487,-109.52295,Rock Point,AZ,Apache
11717,40.780882,-73.250336,Brentwood,NY,Suffolk
32564,30.741616,-86.719764,Holt,FL,Okaloosa
35126,33.72988,-86.645081,Pinson,AL,Jefferson
85021,33.276539,-112.18717,Phoenix,AZ,Maricopa
77085,29.83399,-95.434241,Houston,TX,Harris
56456,46.480723,-94.08587,Jenkins,MN,Crow Wing
53101,42.58098,-87.662878,Bassett,WI,Kenosha
97741,44.62616,-121.128106,Madras,OR,Jefferson
32135,29.466085,-81.282815,Palm Coast,FL,Flagler
11020,40.754757,-73.601772,Great Neck,NY,Nassau
59453,46.485721,-109.834856,Judith Gap,MT,Wheatland
88324,33.739651,-105.629382,Glencoe,NM,Lincoln
18628,41.432901,-76.516887,Lopez,PA,Sullivan
31754,31.844937,-85.104383,Georgetown,GA,Quitman
72202,34.752299,-92.290419,Little Rock,AR,Pulaski
68324,40.536353,-96.299662,Burr,NE,Otoe
60131,41.93598,-87.884962,Franklin Park,IL,Cook
24028,37.274175,-79.95786,Roanoke,VA,Roanoke City
55083,45.021016,-92.983726,Stillwater,MN,Washington
22301,38.823062,-77.079622,Alexandria,VA,Alexandria City
72313,35.712249,-90.028429,Bassett,AR,Mississippi
80943,38.82469,-104.562027,Colorado Springs,CO,El Paso
32456,29.9323,-85.235414,Port Saint Joe,FL,Gulf
74335,36.833508,-94.82788,Cardin,OK,Ottawa
47135,38.039957,-86.06555,Laconia,IN,Harrison
75061,32.921476,-96.587847,Irving,TX,Dallas
84603,40.203908,-111.626081,Provo,UT,Utah
35582,34.453468,-88.067792,Red Bay,AL,Franklin
37930,35.9029,-83.953554,Knoxville,TN,Knox
14510,42.683466,-77.866402,Mount Morris,NY,Livingston
50251,41.576832,-92.924355,Sully,IA,Jasper
75938,30.900651,-94.391575,Colmesneil,TX,Tyler
92118,32.656176,-117.160815,Coronado,CA,San Diego
15334,39.870635,-80.211335,Garards Fort,PA,Greene
21090,39.068309,-76.631743,Linthicum Heights,MD,Anne Arundel
78851,30.218602,-102.106642,Dryden,TX,Terrell
6043,41.768648,-72.439278,Bolton,CT,Tolland
65055,38.674914,-92.610941,Mc Girk,MO,Moniteau
62476,38.519678,-88.009457,West Salem,IL,Edwards
17702,41.194306,-77.054665,Williamsport,PA,Lycoming
78705,30.293057,-97.736932,Austin,TX,Travis
14612,43.257111,-77.67824,Rochester,NY,Monroe
68840,40.770884,-98.882818,Gibbon,NE,Buffalo
26278,38.75338,-79.814713,Mabie,WV,Randolph
10901,41.137295,-74.105737,Suffern,NY,Rockland
51431,42.341553,-95.371381,Arthur,IA,Ida
29802,33.723519,-81.59072,Aiken,SC,Aiken
75077,33.101069,-97.054032,Lewisville,TX,Denton
19095,40.08561,-75.151569,Wyncote,PA,Montgomery
56658,48.27888,-93.755536,Margie,MN,Koochiching
27522,36.108089,-78.671974,Creedmoor,NC,Granville
22042,38.863452,-77.193915,Falls Church,VA,Fairfax
58843,48.276356,-103.376284,Epping,ND,Williams
56216,44.950076,-95.058849,Blomkest,MN,Kandiyohi
17522,40.169662,-76.356933,Ephrata,PA,Lancaster
57244,44.425409,-97.289881,Hetland,SD,Kingsbury
21826,38.320318,-75.620806,Fruitland,MD,Wicomico
8933,40.430006,-74.417344,New Brunswick,NJ,Middlesex
14052,42.768209,-78.577136,East Aurora,NY,Erie
98843,47.73051,-120.045781,Orondo,WA,Douglas
1509,42.364807,-71.896868,Charlton Depot,MA,Worcester
35052,33.589518,-86.392283,Cook Springs,AL,Saint Clair
28736,35.230342,-83.107379,Glenville,NC,Jackson
15849,41.20156,-78.583502,Penfield,PA,Clearfield
26133,39.155706,-81.736307,Belleville,WV,Wood
75449,33.494184,-96.150371,Ladonia,TX,Fannin
92557,33.752886,-116.055617,Moreno Valley,CA,Riverside
78789,30.326374,-97.771258,Austin,TX,Travis
93111,34.453046,-119.798472,Santa Barbara,CA,Santa Barbara
20244,38.893311,-77.014647,Washington,DC,District Of Columbia
55127,45.080265,-93.08752,Saint Paul,MN,Ramsey
72525,36.295879,-91.488845,Cherokee Village,AR,Sharp
20238,38.893311,-77.014647,Washington,DC,District Of Columbia
14841,42.492291,-76.824556,Hector,NY,Schuyler
28458,34.829225,-78.022982,Rose Hill,NC,Duplin
16864,40.972229,-77.760172,Orviston,PA,Centre
56735,48.771938,-96.812921,Lancaster,MN,Kittson
70467,30.90169,-89.820725,Angie,LA,Washington
35963,34.359123,-85.923978,Dawson,AL,De Kalb
4781,46.516166,-68.886826,Wallagrass,ME,Aroostook
18229,40.896709,-75.759303,Jim Thorpe,PA,Carbon
78342,27.659473,-98.012331,Ben Bolt,TX,Jim Wells
98812,48.365236,-119.829391,Brewster,WA,Okanogan
27701,36.004307,-78.875467,Durham,NC,Durham
18102,40.607006,-75.480877,Allentown,PA,Lehigh
18049,40.520705,-75.496131,Emmaus,PA,Lehigh
3101,42.988483,-71.462111,Manchester,NH,Hillsborough
65254,39.159075,-92.826306,Glasgow,MO,Howard
83757,43.459855,-116.243984,Boise,ID,Ada
67601,38.878202,-99.334803,Hays,KS,Ellis
50575,42.519205,-94.678445,Pomeroy,IA,Calhoun
76871,31.300297,-98.912791,Richland Springs,TX,San Saba
76268,33.602427,-96.757322,Southmayd,TX,Grayson
22727,38.369952,-78.297605,Madison,VA,Madison
47965,39.952351,-86.920609,New Market,IN,Montgomery
24105,36.90035,-80.585888,Indian Valley,VA,Floyd
59902,48.189424,-114.143531,Kalispell,MT,Flathead
95429,39.671989,-123.394207,Dos Rios,CA,Mendocino
36901,32.467134,-88.140634,Bellamy,AL,Sumter
13904,42.131088,-75.787801,Binghamton,NY,Broome
21132,39.692854,-76.421834,Pylesville,MD,Harford
50156,41.92886,-93.797086,Madrid,IA,Boone
53203,43.038313,-87.916534,Milwaukee,WI,Milwaukee
37765,36.493188,-83.15127,Kyles Ford,TN,Hancock
29112,33.554183,-81.07622,North,SC,Orangeburg
3260,43.365345,-71.934059,North Sutton,NH,Merrimack
57026,44.289677,-96.540249,Elkton,SD,Brookings
78207,29.348816,-98.439943,San Antonio,TX,Bexar
45490,39.750471,-84.268593,Dayton,OH,Montgomery
46855,41.093763,-85.070713,Fort Wayne,IN,Allen
68869,40.960075,-98.902302,Ravenna,NE,Buffalo
55566,44.805487,-93.766524,Young America,MN,Carver
61260,41.237259,-90.688648,Joy,IL,Mercer
47876,39.433602,-87.410094,Saint Mary Of The Woods,IN,Vigo
83844,46.836284,-116.684553,Moscow,ID,Latah
14766,42.357543,-78.807283,Otto,NY,Cattaraugus
15038,40.252086,-79.925235,Elrama,PA,Washington
24132,37.204788,-80.620517,Parrott,VA,Pulaski
28747,35.157059,-82.826781,Lake Toxaway,NC,Transylvania
16335,41.611599,-80.114891,Meadville,PA,Crawford
97493,43.91587,-124.031752,Westlake,OR,Lane
5670,44.175744,-72.50247,South Barre,VT,Washington
23822,37.072361,-77.647495,Ammon,VA,Dinwiddie
25211,38.465777,-81.050662,Widen,WV,Clay
95101,37.189396,-121.705327,San Jose,CA,Santa Clara
83120,43.026767,-111.003953,Freedom,WY,Lincoln
73632,35.232961,-99.05841,Cordell,OK,Washita
42135,36.758166,-86.581957,Franklin,KY,Simpson
18425,41.41594,-75.022543,Greeley,PA,Pike
31029,33.025944,-83.915021,Forsyth,GA,Monroe
53510,42.685375,-90.263828,Belmont,WI,Lafayette
94134,37.72168,-122.410832,San Francisco,CA,San Francisco
81007,38.387004,-104.779156,Pueblo,CO,Pueblo
97537,42.533003,-123.097269,Rogue River,OR,Jackson
77572,29.83399,-95.434241,La Porte,TX,Harris
4734,46.516166,-68.886826,Blaine,ME,Aroostook
1270,42.443726,-73.116127,Windsor,MA,Berkshire
14840,42.322455,-77.198396,Hammondsport,NY,Steuben
46896,41.093763,-85.070713,Fort Wayne,IN,Allen
81027,37.232444,-103.722865,Branson,CO,Las Animas
70804,30.386267,-91.133905,Baton Rouge,LA,East Baton Rouge
31993,32.482142,-84.977131,Columbus,GA,Muscogee
80543,40.387381,-104.841349,Milliken,CO,Weld
6233,41.831565,-72.020137,Ballouville,CT,Windham
48044,42.644211,-82.898513,Macomb,MI,Macomb
87184,35.044339,-106.672872,Albuquerque,NM,Bernalillo
909,18.443384,-66.068133,San Juan,PR,San Juan
26036,40.015394,-80.550114,Dallas,WV,Marshall
39740,33.81523,-88.271904,Caledonia,MS,Monroe
27506,35.420467,-78.713729,Buies Creek,NC,Harnett
25024,38.154021,-81.630599,Bloomingrose,WV,Boone
67140,37.136607,-97.329247,South Haven,KS,Sumner
31713,31.47718,-84.699156,Arlington,GA,Calhoun
32142,29.466085,-81.282815,Palm Coast,FL,Flagler
27401,36.055285,-79.831692,Greensboro,NC,Guilford
56639,47.852226,-93.524252,Effie,MN,Itasca
38737,33.685766,-90.607299,Drew,MS,Sunflower
58107,46.934596,-97.229718,Fargo,ND,Cass
43026,39.969036,-83.011389,Hilliard,OH,Franklin
38543,36.364735,-85.189932,Alpine,TN,Overton
2114,42.362097,-71.023661,Boston,MA,Suffolk
71249,32.138935,-91.691899,Jigger,LA,Franklin
6278,41.889043,-72.147561,Ashford,CT,Windham
60501,41.811929,-87.68732,Summit Argo,IL,Cook
44653,40.437981,-81.372875,Midvale,OH,Tuscarawas
15241,40.332266,-80.081026,Pittsburgh,PA,Allegheny
31793,31.485438,-83.503621,Tifton,GA,Tift
59540,48.566602,-110.110287,Rudyard,MT,Hill
49791,45.483842,-84.593561,Topinabee,MI,Cheboygan
37995,35.990142,-83.96218,Knoxville,TN,Knox
54441,44.645875,-90.105056,Hewitt,WI,Wood
12564,41.663759,-73.590491,Pawling,NY,Dutchess
76555,30.784169,-96.96376,Maysfield,TX,Milam
28657,36.059029,-81.930337,Newland,NC,Avery
12885,43.570457,-73.859928,Warrensburg,NY,Warren
73766,36.661992,-97.841842,Pond Creek,OK,Grant
39462,31.171903,-88.991561,New Augusta,MS,Perry
23109,37.410286,-76.294103,Mathews,VA,Mathews
14488,42.729839,-77.773919,Livonia Center,NY,Livingston
7657,40.83315,-74.004233,Ridgefield,NJ,Bergen
79095,34.852623,-100.21447,Wellington,TX,Collingsworth
48441,43.867295,-82.800293,Harbor Beach,MI,Huron
56588,46.412413,-95.713452,Vining,MN,Otter Tail
95038,37.225787,-121.617894,Morgan Hill,CA,Santa Clara
54935,43.734724,-88.523176,Fond Du Lac,WI,Fond Du Lac
85636,31.668685,-110.280111,Sierra Vista,AZ,Cochise
91046,33.786594,-118.298662,Verdugo City,CA,Los Angeles
3262,44.035391,-71.686326,North Woodstock,NH,Grafton
14887,42.399371,-77.026768,Tyrone,NY,Schuyler
7470,40.948689,-74.241168,Wayne,NJ,Passaic
7748,40.400997,-74.144636,Middletown,NJ,Monmouth
25919,37.800481,-81.180561,Skelton,WV,Raleigh
15431,39.949088,-79.723151,Dunbar,PA,Fayette
55190,45.005902,-93.105869,Saint Paul,MN,Ramsey
94087,37.189396,-121.705327,Sunnyvale,CA,Santa Clara
90740,33.640302,-117.769442,Seal Beach,CA,Orange
17703,41.33275,-77.023601,Williamsport,PA,Lycoming
95722,39.001448,-121.034843,Meadow Vista,CA,Placer
29431,33.270301,-79.873606,Bonneau,SC,Berkeley
95528,40.501603,-123.952838,Carlotta,CA,Humboldt
95205,37.954773,-121.255405,Stockton,CA,San Joaquin
27814,35.500693,-76.977521,Blounts Creek,NC,Beaufort
83210,43.004883,-112.839971,Aberdeen,ID,Bingham
55918,43.746834,-92.866996,Brownsdale,MN,Mower
22936,38.166565,-78.506832,Earlysville,VA,Albemarle
43468,41.605048,-83.338128,Williston,OH,Ottawa
72105,34.39588,-92.851558,Jones Mill,AR,Hot Spring
27278,36.077432,-79.085469,Hillsborough,NC,Orange
54733,45.261871,-91.845156,Dallas,WI,Barron
77075,29.623734,-95.262863,Houston,TX,Harris
53787,43.06956,-89.423861,Madison,WI,Dane
5640,44.174872,-72.502235,Adamant,VT,Washington
29550,34.345106,-80.073953,Hartsville,SC,Darlington
97269,45.173284,-122.259861,Portland,OR,Clackamas
89451,39.253908,-119.935619,Incline Village,NV,Washoe
81025,38.319575,-104.209119,Boone,CO,Pueblo
18634,41.249808,-76.008195,Nanticoke,PA,Luzerne
96745,19.593456,-155.438015,Kailua Kona,HI,Hawaii
33540,28.240942,-82.156491,Zephyrhills,FL,Pasco
60168,41.811929,-87.68732,Schaumburg,IL,Cook
71072,32.74333,-93.327139,Shongaloo,LA,Webster
20401,38.893311,-77.014647,Washington,DC,District Of Columbia
26215,38.899314,-80.226855,Cleveland,WV,Upshur
19971,38.629763,-75.319975,Rehoboth Beach,DE,Sussex
45814,40.908204,-83.617612,Arlington,OH,Hancock
33320,26.162462,-80.25822,Fort Lauderdale,FL,Broward
25674,37.827155,-82.404906,Kermit,WV,Mingo
36303,31.160148,-85.322984,Dothan,AL,Houston
27377,36.046202,-79.608882,Whitsett,NC,Guilford
13303,43.364242,-75.468514,Ava,NY,Oneida
24477,37.973609,-79.065951,Stuarts Draft,VA,Augusta
36732,32.384949,-87.824556,Demopolis,AL,Marengo
89120,36.310827,-115.367158,Las Vegas,NV,Clark
88121,34.753722,-103.970607,House,NM,Quay
61872,39.945436,-88.359609,Sadorus,IL,Champaign
45005,39.526049,-84.186961,Franklin,OH,Warren
10943,41.387822,-74.354699,Middletown,NY,Orange
97737,43.372529,-121.658336,Gilchrist,OR,Klamath
12212,42.716774,-73.810373,Albany,NY,Albany
72432,35.575374,-90.791023,Harrisburg,AR,Poinsett
93621,36.723654,-119.051698,Dunlap,CA,Fresno
66946,39.841523,-96.966275,Hollenberg,KS,Washington
35673,34.591393,-87.078896,Trinity,AL,Morgan
44631,40.521924,-81.003619,Harlem Springs,OH,Carroll
49644,44.091983,-85.90658,Irons,MI,Lake
13052,42.776527,-75.859458,De Ruyter,NY,Madison
77045,29.642031,-95.403617,Houston,TX,Harris
19017,39.883911,-75.466949,Chester Heights,PA,Delaware
22545,38.508611,-77.542957,Ruby,VA,Stafford
47282,38.982509,-85.616595,Vernon,IN,Jennings
14081,42.543516,-79.101301,Irving,NY,Chautauqua
59311,45.567085,-104.539066,Alzada,MT,Carter
45801,40.772147,-84.0471,Lima,OH,Allen
4949,44.371549,-69.15555,Liberty,ME,Waldo
96113,40.101514,-120.244727,Herlong,CA,Lassen
45832,40.896997,-84.716607,Convoy,OH,Van Wert
80265,39.738752,-104.408349,Denver,CO,Denver
13780,42.365134,-75.611685,Guilford,NY,Chenango
24482,38.210585,-78.989369,Verona,VA,Augusta
32854,28.566338,-81.260818,Orlando,FL,Orange
99502,61.166069,-149.960008,Anchorage,AK,Anchorage
28098,35.262444,-81.097965,Lowell,NC,Gaston
68418,40.705559,-96.397545,Palmyra,NE,Otoe
62354,40.432598,-91.208266,Nauvoo,IL,Hancock
58452,47.456477,-98.230415,Jessie,ND,Griggs
61350,41.248925,-88.833337,Ottawa,IL,La Salle
74631,36.803494,-97.20684,Blackwell,OK,Kay
29330,35.04921,-81.83128,Cowpens,SC,Spartanburg
43220,39.969036,-83.011389,Columbus,OH,Franklin
74333,36.844913,-95.073159,Bluejacket,OK,Craig
78117,28.993819,-97.928162,Hobson,TX,Karnes
94098,37.381144,-122.334825,San Bruno,CA,San Mateo
44072,41.468754,-81.328211,Novelty,OH,Geauga
24569,37.093523,-79.081614,Long Island,VA,Campbell
85735,32.440968,-110.976006,Tucson,AZ,Pima
79502,33.139647,-100.224966,Aspermont,TX,Stonewall
76825,31.150939,-99.337237,Brady,TX,Mcculloch
10154,40.758304,-73.973468,New York,NY,New York
90061,33.920965,-118.275356,Los Angeles,CA,Los Angeles
94998,38.117269,-122.568442,Novato,CA,Marin
42372,37.488059,-87.258644,Sacramento,KY,Mclean
34777,28.541579,-81.605846,Winter Garden,FL,Orange
25440,39.442661,-78.02628,Ridgeway,WV,Berkeley
22234,38.880811,-77.11295,Arlington,VA,Arlington
4988,44.601175,-69.357191,Unity,ME,Waldo
61441,40.333536,-90.307389,Ipava,IL,Fulton
84335,41.801798,-111.910101,Smithfield,UT,Cache
8808,40.737213,-75.046926,Broadway,NJ,Warren
44057,41.781467,-81.073247,Madison,OH,Lake
97761,44.771108,-121.334786,Warm Springs,OR,Jefferson
57538,43.114883,-99.195945,Herrick,SD,Gregory
75692,32.518392,-94.135507,Waskom,TX,Harrison
50845,40.727999,-94.292656,Diagonal,IA,Ringgold
50704,42.469768,-92.309475,Waterloo,IA,Black Hawk
17862,40.857426,-77.064941,Penns Creek,PA,Snyder
2816,41.694251,-71.636786,Coventry,RI,Kent
18081,40.328645,-75.10278,Springtown,PA,Bucks
94088,37.189396,-121.705327,Sunnyvale,CA,Santa Clara
13326,42.714065,-74.890929,Cooperstown,NY,Otsego
3055,42.848787,-71.743882,Milford,NH,Hillsborough
30548,34.099031,-83.71817,Hoschton,GA,Jackson
40164,37.802295,-86.414768,Se Ree,KY,Breckinridge
62630,39.337165,-90.070475,Chesterfield,IL,Macoupin
94820,37.777208,-121.955399,El Sobrante,CA,Contra Costa
58009,47.454888,-97.151692,Blanchard,ND,Traill
58523,47.277895,-101.853161,Beulah,ND,Mercer
37753,35.82414,-83.098214,Hartford,TN,Cocke
20020,38.85761,-76.971547,Washington,DC,District Of Columbia
89047,37.722454,-117.796454,Silverpeak,NV,Esmeralda
20623,38.745514,-76.840572,Cheltenham,MD,Prince Georges
17055,40.180953,-77.177086,Mechanicsburg,PA,Cumberland
63011,38.609102,-90.559763,Ballwin,MO,Saint Louis
32360,30.288896,-84.848444,Telogia,FL,Liberty
70895,30.51589,-91.080373,Baton Rouge,LA,East Baton Rouge
75884,31.794191,-95.661964,Tennessee Colony,TX,Anderson
29116,33.49593,-80.824603,Orangeburg,SC,Orangeburg
78121,29.34551,-98.087356,La Vernia,TX,Wilson
39571,30.426162,-89.264327,Pass Christian,MS,Harrison
16222,40.881227,-79.240054,Dayton,PA,Armstrong
98324,48.18315,-123.872972,Carlsborg,WA,Clallam
79324,33.868293,-102.764582,Enochs,TX,Bailey
77566,29.09609,-95.425232,Lake Jackson,TX,Brazoria
17931,40.692869,-76.348699,Frackville,PA,Schuylkill
38478,35.217373,-87.015664,Pulaski,TN,Giles
15489,39.956056,-79.700745,West Leisenring,PA,Fayette
37211,36.070359,-86.718347,Nashville,TN,Davidson
33836,28.167211,-81.631589,Davenport,FL,Polk
50597,43.002465,-94.501553,West Bend,IA,Palo Alto
97417,42.95096,-123.258975,Canyonville,OR,Douglas
70161,30.032997,-89.882564,New Orleans,LA,Orleans
38878,33.896961,-89.221899,Vardaman,MS,Calhoun
50642,42.44797,-92.817924,Holland,IA,Grundy
57014,43.291296,-97.042271,Centerville,SD,Turner
23885,37.180418,-77.575347,Sutherland,VA,Dinwiddie
53048,43.516912,-88.480811,Lomira,WI,Dodge
80918,38.90319,-104.807998,Colorado Springs,CO,El Paso
15225,40.505118,-80.115528,Pittsburgh,PA,Allegheny
45106,38.922008,-84.109327,Bethel,OH,Clermont
12009,42.688731,-74.030596,Altamont,NY,Albany
93313,35.27581,-119.013543,Bakersfield,CA,Kern
71294,32.490777,-92.159354,West Monroe,LA,Ouachita
20074,38.893311,-77.014647,Washington,DC,District Of Columbia
97305,44.996133,-122.91239,Salem,OR,Marion
5072,43.892586,-72.369563,Strafford,VT,Orange
28721,35.637588,-82.978588,Clyde,NC,Haywood
20410,38.893311,-77.014647,Washington,DC,District Of Columbia
50590,43.283285,-94.295584,Swea City,IA,Kossuth
60303,41.811929,-87.68732,Oak Park,IL,Cook
40256,38.188962,-85.676819,Louisville,KY,Jefferson
73645,35.203883,-99.870825,Erick,OK,Beckham
48312,42.566338,-83.028532,Sterling Heights,MI,Macomb
29658,34.763442,-83.277599,Long Creek,SC,Oconee
16319,41.398105,-79.738809,Cranberry,PA,Venango
68370,40.240562,-97.64485,Hebron,NE,Thayer
22742,38.462651,-77.706223,Sumerduck,VA,Fauquier
47281,38.814419,-86.092983,Vallonia,IN,Jackson
77614,30.584648,-93.749467,Deweyville,TX,Newton
98321,47.152347,-122.079177,Buckley,WA,Pierce
65084,38.420142,-92.835322,Versailles,MO,Morgan
38316,36.057402,-88.804199,Bradford,TN,Gibson
85253,33.360896,-111.963149,Paradise Valley,AZ,Maricopa
2116,42.347207,-71.086095,Boston,MA,Suffolk
48035,42.551185,-82.91672,Clinton Township,MI,Macomb
74194,36.139826,-96.029725,Tulsa,OK,Tulsa
70357,29.269324,-90.195917,Golden Meadow,LA,Lafourche
13743,42.226448,-76.309863,Candor,NY,Tioga
83215,43.244795,-112.297912,Atomic City,ID,Bingham
30029,33.960353,-84.037859,North Metro,GA,Gwinnett
97477,43.937276,-123.444371,Springfield,OR,Lane
45622,39.354339,-82.503012,Creola,OH,Vinton
97070,45.308493,-122.785518,Wilsonville,OR,Clackamas
60646,42.00663,-87.75901,Chicago,IL,Cook
33637,28.047044,-82.363024,Tampa,FL,Hillsborough
5661,44.560179,-72.615346,Morrisville,VT,Lamoille
24530,36.785155,-79.60708,Callands,VA,Pittsylvania
18457,41.340936,-75.024055,Rowland,PA,Pike
16257,41.202325,-79.453751,Snydersburg,PA,Clarion
13490,43.124769,-75.432867,Westmoreland,NY,Oneida
43541,41.300891,-83.829596,Milton Center,OH,Wood
76094,32.771419,-97.291484,Arlington,TX,Tarrant
98276,48.834208,-122.335734,Nooksack,WA,Whatcom
13692,44.289833,-76.02621,Thousand Island Park,NY,Jefferson
28740,35.89163,-82.319283,Green Mountain,NC,Yancey
59808,46.977603,-114.061856,Missoula,MT,Missoula
72426,35.881256,-90.054689,Dell,AR,Mississippi
48422,43.252807,-82.644104,Croswell,MI,Sanilac
5735,43.636856,-73.126638,Castleton,VT,Rutland
79503,32.749919,-99.783771,Avoca,TX,Jones
49743,45.283467,-83.873719,Hawks,MI,Presque Isle
38549,36.552982,-85.162523,Byrdstown,TN,Pickett
99402,46.174099,-117.118489,Asotin,WA,Asotin
50799,42.469768,-92.309475,Waterloo,IA,Black Hawk
88539,31.694842,-106.299987,El Paso,TX,El Paso
52168,43.203195,-91.944055,Spillville,IA,Winneshiek
47223,39.046146,-85.486831,Butlerville,IN,Jennings
91351,33.786594,-118.298662,Canyon Country,CA,Los Angeles
6247,41.788756,-71.975819,Hampton,CT,Windham
29861,33.53773,-81.599891,North Augusta,SC,Aiken
94261,38.377411,-121.444429,Sacramento,CA,Sacramento
24012,37.30529,-79.92711,Roanoke,VA,Roanoke City
90621,33.640302,-117.769442,Buena Park,CA,Orange
62953,37.209231,-88.844181,Joppa,IL,Massac
66045,38.952526,-95.275623,Lawrence,KS,Douglas
54965,44.155967,-89.02096,Pine River,WI,Waushara
32452,30.849972,-85.768022,Noma,FL,Holmes
95589,40.47949,-123.847878,Whitethorn,CA,Humboldt
79346,33.667497,-102.690997,Morton,TX,Cochran
69147,41.315509,-102.153084,Lewellen,NE,Garden
75044,32.952929,-96.646873,Garland,TX,Dallas
97306,44.856786,-123.088297,Salem,OR,Marion
93664,37.098774,-119.166093,Shaver Lake,CA,Fresno
15848,40.989115,-78.422403,Luthersburg,PA,Clearfield
56089,43.559269,-93.420578,Twin Lakes,MN,Freeborn
33711,27.733448,-82.690035,Saint Petersburg,FL,Pinellas
64682,39.410971,-93.431928,Tina,MO,Carroll
67054,37.607534,-99.204968,Greensburg,KS,Kiowa
93268,35.703306,-118.413077,Taft,CA,Kern
27094,36.027482,-80.20728,Rural Hall,NC,Forsyth
40940,36.769184,-83.708181,Frakes,KY,Bell
42055,37.073525,-88.144971,Kuttawa,KY,Lyon
71486,31.64176,-93.637939,Zwolle,LA,Sabine
1537,42.166241,-71.891052,North Oxford,MA,Worcester
43351,40.828153,-83.313786,Upper Sandusky,OH,Wyandot
8826,40.578191,-74.904575,Glen Gardner,NJ,Hunterdon
77420,29.240304,-95.954627,Boling,TX,Wharton
29822,33.499656,-81.86485,Clearwater,SC,Aiken
32594,30.61428,-87.275772,Pensacola,FL,Escambia
79544,33.331926,-99.781154,Rochester,TX,Haskell
18701,41.203631,-75.88434,Wilkes Barre,PA,Luzerne
99516,61.091201,-149.762371,Anchorage,AK,Anchorage
32598,30.61428,-87.275772,Pensacola,FL,Escambia
6703,41.365709,-72.927507,Waterbury,CT,New Haven
33758,27.891809,-82.724763,Clearwater,FL,Pinellas
39216,32.336744,-90.216096,Jackson,MS,Hinds
8015,39.924179,-74.670408,Browns Mills,NJ,Burlington
26588,39.535089,-80.127883,Rivesville,WV,Marion
83344,42.476903,-114.120513,Murtaugh,ID,Twin Falls
36869,32.318701,-85.111997,Phenix City,AL,Russell
8831,40.343757,-74.42887,Monroe Township,NJ,Middlesex
61790,40.51032,-88.99803,Normal,IL,Mclean
97845,44.550033,-118.914774,John Day,OR,Grant
727,18.212965,-66.058033,Caguas,PR,Caguas
28622,36.185475,-81.919892,Elk Park,NC,Avery
11583,40.754757,-73.601772,Valley Stream,NY,Nassau
27958,36.399081,-76.064702,Moyock,NC,Currituck
83227,44.22397,-114.312713,Clayton,ID,Custer
62281,38.705928,-89.792463,Saint Jacob,IL,Madison
33157,25.558428,-80.458168,Miami,FL,Miami-Dade
22209,38.893596,-77.110376,Arlington,VA,Arlington
72513,36.234637,-91.568849,Ash Flat,AR,Sharp
73159,35.394212,-97.566716,Oklahoma City,OK,Oklahoma
3220,43.455551,-71.40709,Belmont,NH,Belknap
61319,41.03103,-88.766797,Cornell,IL,Livingston
66938,39.59127,-97.398639,Clyde,KS,Cloud
34773,28.146663,-80.993806,Saint Cloud,FL,Osceola
41512,37.462655,-82.448017,Ashcamp,KY,Pike
78877,28.641577,-100.389477,Quemado,TX,Maverick
65439,37.505462,-90.845047,Bixby,MO,Iron
94543,37.680181,-121.921498,Hayward,CA,Alameda
8037,39.563616,-74.711081,Hammonton,NJ,Atlantic
73838,36.334047,-98.532338,Chester,OK,Major
42285,37.236073,-86.27074,Sweeden,KY,Edmonson
77985,29.347975,-96.900331,Speaks,TX,Lavaca
30453,32.031081,-82.146011,Reidsville,GA,Tattnall
12203,42.700345,-73.857496,Albany,NY,Albany
62666,40.085044,-89.522027,Middletown,IL,Logan
43933,39.937228,-80.888014,Jacobsburg,OH,Belmont
97886,45.788782,-118.300068,Weston,OR,Umatilla
15228,40.369569,-80.043925,Pittsburgh,PA,Allegheny
69037,40.176417,-101.687688,Max,NE,Dundy
86434,35.540361,-113.415346,Peach Springs,AZ,Mohave
52066,42.667786,-90.986518,North Buena Vista,IA,Clayton
13469,43.219369,-75.299112,Stittville,NY,Oneida
97499,43.308689,-123.165395,Yoncalla,OR,Douglas
35542,33.712675,-87.774117,Bankston,AL,Fayette
97102,45.810934,-123.962989,Arch Cape,OR,Clatsop
96701,21.39065,-157.927829,Aiea,HI,Honolulu
32030,30.105553,-81.768964,Doctors Inlet,FL,Clay
95494,38.934552,-123.268378,Yorkville,CA,Mendocino
24168,36.688926,-79.944745,Stanleytown,VA,Henry
12862,43.675377,-73.932509,Riparius,NY,Warren
24888,37.375246,-81.653889,Thorpe,WV,Mcdowell
51656,40.737446,-95.156217,Yorktown,IA,Page
51446,41.684667,-95.325315,Irwin,IA,Shelby
78739,30.172937,-97.886794,Austin,TX,Travis
56627,48.091615,-93.81606,Big Falls,MN,Koochiching
90096,33.786594,-118.298662,Los Angeles,CA,Los Angeles
65771,36.772257,-93.222445,Walnut Shade,MO,Taney
12958,44.792956,-73.661296,Mooers,NY,Clinton
31778,30.869228,-83.900766,Pavo,GA,Thomas
75973,31.774637,-94.152946,Shelbyville,TX,Shelby
31801,32.701117,-84.494946,Box Springs,GA,Talbot
95472,38.407222,-122.869654,Sebastopol,CA,Sonoma
96734,21.595644,-158.039121,Kailua,HI,Honolulu
94999,38.267466,-122.658097,Petaluma,CA,Sonoma
46845,41.095957,-85.084581,Fort Wayne,IN,Allen
99589,60.314735,-163.118947,Goodnews Bay,AK,Bethel
1569,42.059736,-71.638438,Uxbridge,MA,Worcester
66653,39.042939,-95.769657,Topeka,KS,Shawnee
7930,40.782111,-74.683861,Chester,NJ,Morris
67112,37.471011,-98.391558,Nashville,KS,Kingman
95201,37.672196,-121.298794,Stockton,CA,San Joaquin
72641,36.005808,-93.187651,Jasper,AR,Newton
72040,34.831514,-91.53744,Des Arc,AR,Prairie
77474,29.845826,-96.317806,Sealy,TX,Austin
39149,31.837604,-90.016517,Pinola,MS,Simpson
80612,40.597204,-104.869798,Carr,CO,Weld
55616,47.134891,-91.545363,Two Harbors,MN,Lake
44312,41.018961,-81.443312,Akron,OH,Summit
45826,40.428177,-84.633484,Chickasaw,OH,Mercer
73111,35.526182,-97.502631,Oklahoma City,OK,Oklahoma
40955,36.769184,-83.708181,Ingram,KY,Bell
61105,42.325364,-89.170527,Rockford,IL,Winnebago
73502,34.630879,-98.457646,Lawton,OK,Comanche
16685,40.270965,-78.077244,Todd,PA,Huntingdon
43449,41.53653,-83.144869,Oak Harbor,OH,Ottawa
93905,36.682888,-121.612105,Salinas,CA,Monterey
8846,40.575202,-74.499398,Middlesex,NJ,Middlesex
62458,39.025319,-88.852372,Saint Elmo,IL,Fayette
98544,46.734909,-123.02536,Galvin,WA,Lewis
52350,42.091217,-91.385047,Viola,IA,Linn
59255,48.115522,-105.189701,Poplar,MT,Roosevelt
15921,40.319561,-78.694043,Beaverdale,PA,Cambria
1880,42.499891,-71.068829,Wakefield,MA,Middlesex
78733,30.321504,-97.889882,Austin,TX,Travis
35032,33.256886,-86.338572,Bon Air,AL,Talladega
97071,45.148007,-122.876205,Woodburn,OR,Marion
20171,38.92518,-77.39284,Herndon,VA,Fairfax
90507,33.786594,-118.298662,Torrance,CA,Los Angeles
10011,40.740916,-73.999769,New York,NY,New York
71309,31.30473,-92.619593,Alexandria,LA,Rapides
37101,36.066188,-87.659245,Mc Ewen,TN,Humphreys
74852,35.116442,-97.01139,Macomb,OK,Pottawatomie
58705,48.234184,-101.297161,Minot Afb,ND,Ward
32708,28.690114,-81.222547,Winter Springs,FL,Seminole
68035,41.339383,-96.444769,Leshara,NE,Saunders
66522,39.865912,-95.93919,Oneida,KS,Nemaha
22844,38.673777,-78.677685,New Market,VA,Shenandoah
41368,37.611684,-83.64341,Saint Helens,KY,Lee
70555,30.074655,-92.147849,Maurice,LA,Vermilion
15204,40.455368,-80.064416,Pittsburgh,PA,Allegheny
48924,42.599184,-84.371973,Lansing,MI,Ingham
1075,42.24984,-72.58152,South Hadley,MA,Hampshire
16854,40.893455,-77.473298,Millheim,PA,Centre
22480,37.667319,-76.404996,Irvington,VA,Lancaster
5620,44.259518,-72.585018,Montpelier,VT,Washington
97339,44.49893,-123.445033,Corvallis,OR,Benton
28433,34.529167,-78.592149,Clarkton,NC,Bladen
8250,39.056521,-74.816619,Tuckahoe,NJ,Cape May
98022,47.234107,-121.903936,Enumclaw,WA,King
53523,42.987505,-89.080742,Cambridge,WI,Dane
39177,32.711257,-90.952716,Valley Park,MS,Issaquena
77417,29.482797,-95.974399,Beasley,TX,Fort Bend
94592,38.096788,-122.26986,Vallejo,CA,Solano
12918,44.686162,-73.670249,Cadyville,NY,Clinton
47151,38.298486,-85.896961,New Albany,IN,Floyd
90307,33.786594,-118.298662,Inglewood,CA,Los Angeles
94507,37.936723,-122.067431,Alamo,CA,Contra Costa
94064,37.381144,-122.334825,Redwood City,CA,San Mateo
83110,42.711296,-110.619734,Afton,WY,Lincoln
30607,33.998267,-83.439569,Athens,GA,Clarke
12062,42.537218,-73.503877,East Nassau,NY,Rensselaer
71027,32.172214,-93.790471,Frierson,LA,De Soto
92516,33.752886,-116.055617,Riverside,CA,Riverside
93618,36.509532,-119.395365,Dinuba,CA,Tulare
53573,43.1234,-90.488423,Muscoda,WI,Grant
62920,37.526817,-89.219012,Cobden,IL,Union
38034,35.843638,-89.207168,Friendship,TN,Crockett
38257,36.381482,-89.08396,South Fulton,TN,Obion
93902,36.35433,-121.132928,Salinas,CA,Monterey
84304,41.816936,-111.998197,Cache Junction,UT,Cache
65101,38.494029,-92.165194,Jefferson City,MO,Cole
76932,31.417011,-101.5423,Big Lake,TX,Reagan
75261,32.767268,-96.777626,Dallas,TX,Dallas
13119,42.97446,-76.440833,Mottville,NY,Onondaga
66634,39.042939,-95.769657,Topeka,KS,Shawnee
62321,40.432148,-91.135365,Carthage,IL,Hancock
95141,37.178745,-121.741809,San Jose,CA,Santa Clara
84073,40.320728,-110.435974,Talmage,UT,Duchesne
77515,29.154269,-95.406577,Angleton,TX,Brazoria
54457,44.299968,-89.920843,Nekoosa,WI,Wood
13842,42.183045,-74.925617,South Kortright,NY,Delaware
80524,40.59889,-105.252751,Fort Collins,CO,Larimer
48553,42.973627,-83.720306,Flint,MI,Genesee
34282,27.427213,-82.438689,Bradenton,FL,Manatee
27012,36.081218,-80.328298,Clemmons,NC,Forsyth
48650,43.839179,-84.038715,Pinconning,MI,Bay
82939,41.233491,-110.337157,Mountain View,WY,Uinta
52155,43.410582,-92.276168,Lime Springs,IA,Howard
2915,41.7743,-71.349697,Riverside,RI,Providence
64781,38.024133,-93.781478,Roscoe,MO,Saint Clair
63384,39.073061,-91.533545,Wellsville,MO,Montgomery
13639,44.23896,-75.122756,Fine,NY,Saint Lawrence
60567,41.839679,-88.088716,Naperville,IL,Du Page
31569,30.939072,-81.703469,Woodbine,GA,Camden
64424,40.258215,-94.020972,Bethany,MO,Harrison
5738,43.526706,-72.869165,Cuttingsville,VT,Rutland
83615,44.665905,-116.036911,Donnelly,ID,Valley
33243,25.558428,-80.458168,Miami,FL,Miami-Dade
67701,39.40152,-100.973696,Colby,KS,Thomas
15219,40.375351,-80.017075,Pittsburgh,PA,Allegheny
80137,39.796784,-104.630327,Watkins,CO,Adams
74083,36.798384,-95.608896,Wann,OK,Nowata
60953,40.75071,-87.695039,Milford,IL,Iroquois
22528,37.713175,-76.409946,Nuttsville,VA,Lancaster
82084,41.271207,-105.486538,Tie Siding,WY,Albany
3830,43.635065,-71.009368,East Wakefield,NH,Carroll
54232,44.005714,-87.922351,Saint Nazianz,WI,Manitowoc
93942,36.35433,-121.132928,Monterey,CA,Monterey
38851,33.911901,-88.931148,Houston,MS,Chickasaw
15270,40.434436,-80.024817,Pittsburgh,PA,Allegheny
38393,34.99687,-88.645577,Chewalla,TN,Mcnairy
31523,31.218921,-81.546047,Brunswick,GA,Glynn
24149,37.057894,-80.436385,Riner,VA,Montgomery
12937,44.955977,-74.48674,Fort Covington,NY,Franklin
20144,38.911315,-77.967401,Delaplane,VA,Fauquier
62650,39.737044,-90.301388,Jacksonville,IL,Morgan
46863,41.093763,-85.070713,Fort Wayne,IN,Allen
21783,39.591355,-77.614762,Smithsburg,MD,Washington
17815,41.005609,-76.430563,Bloomsburg,PA,Columbia
73476,34.680871,-97.300429,Pernell,OK,Garvin
78471,27.777,-97.463213,Corpus Christi,TX,Nueces
15361,40.32819,-80.256291,Southview,PA,Washington
61102,42.22974,-89.155825,Rockford,IL,Winnebago
52409,42.079415,-91.599215,Cedar Rapids,IA,Linn
61054,42.058183,-89.352968,Mount Morris,IL,Ogle
3060,42.771537,-71.626336,Nashua,NH,Hillsborough
49068,42.265016,-84.948946,Marshall,MI,Calhoun
4271,44.264111,-70.498513,Paris,ME,Oxford
37733,36.351914,-84.713666,Rugby,TN,Morgan
74073,36.298452,-95.951622,Sperry,OK,Tulsa
27536,36.38698,-78.396213,Henderson,NC,Vance
34729,28.811078,-81.653642,Ferndale,FL,Lake
33911,26.596286,-81.882373,Fort Myers,FL,Lee
37206,36.180143,-86.73575,Nashville,TN,Davidson
40816,37.009799,-83.349418,Chappell,KY,Leslie
32216,30.28434,-81.54074,Jacksonville,FL,Duval
38012,35.633418,-89.276381,Brownsville,TN,Haywood
38452,35.195385,-87.827937,Cypress Inn,TN,Wayne
3302,43.310279,-71.662928,Concord,NH,Merrimack
18853,41.668617,-76.265169,Wyalusing,PA,Bradford
25696,37.743063,-82.10801,Varney,WV,Mingo
22840,38.400968,-78.734456,Mc Gaheysville,VA,Rockingham
77957,29.003797,-96.68519,Edna,TX,Jackson
68102,41.262003,-95.933564,Omaha,NE,Douglas
46938,40.44673,-85.650398,Jonesboro,IN,Grant
95696,38.34896,-121.908324,Vacaville,CA,Solano
5732,43.643723,-73.209356,Bomoseen,VT,Rutland
16882,40.897081,-77.402419,Woodward,PA,Centre
99017,46.96178,-117.687163,Lamont,WA,Whitman
10958,41.375634,-74.43375,New Hampton,NY,Orange
38740,33.94809,-90.770386,Duncan,MS,Bolivar
55018,44.426537,-92.955359,Dennison,MN,Goodhue
70374,29.533839,-90.409864,Lockport,LA,Lafourche
51035,42.76416,-95.786406,Marcus,IA,Cherokee
31914,32.491005,-84.874123,Columbus,GA,Muscogee
12086,42.969505,-74.155559,Hagaman,NY,Montgomery
15951,40.338615,-78.776137,Saint Michael,PA,Cambria
19886,39.564499,-75.597047,Wilmington,DE,New Castle
43653,41.686778,-83.43943,Toledo,OH,Lucas
4854,44.07951,-69.085574,Owls Head,ME,Knox
15740,41.141079,-78.962877,Frostburg,PA,Jefferson
4406,45.184103,-69.233382,Abbot,ME,Piscataquis
50854,40.716275,-94.228794,Mount Ayr,IA,Ringgold
92685,33.640302,-117.769442,Westminster,CA,Orange
25570,38.222206,-82.418862,Wayne,WV,Wayne
5045,43.928681,-72.196635,Fairlee,VT,Orange
40360,38.146022,-83.78456,Owingsville,KY,Bath
21675,38.307394,-76.106344,Wingate,MD,Dorchester
5448,44.741186,-72.882683,East Fairfield,VT,Franklin
21635,39.320381,-75.836031,Galena,MD,Kent
75266,32.767268,-96.777626,Dallas,TX,Dallas
97540,42.221879,-122.770093,Talent,OR,Jackson
22182,38.935292,-77.268022,Vienna,VA,Fairfax
67515,38.479822,-99.916519,Arnold,KS,Ness
24090,37.527349,-79.834474,Fincastle,VA,Botetourt
58646,46.369616,-102.326958,Mott,ND,Hettinger
76573,30.805512,-97.470456,Schwertner,TX,Williamson
50304,41.672687,-93.572173,Des Moines,IA,Polk
68669,41.09176,-97.224683,Ulysses,NE,Butler
47990,40.055655,-87.035366,Waynetown,IN,Montgomery
58057,46.443826,-97.343373,Mcleod,ND,Ransom
72717,35.847701,-94.444142,Canehill,AR,Washington
40313,38.128726,-83.442495,Clearfield,KY,Rowan
64783,37.849889,-94.338133,Schell City,MO,Vernon
49058,42.639121,-85.28988,Hastings,MI,Barry
62556,39.429374,-89.30808,Palmer,IL,Christian
50833,40.687613,-94.690576,Bedford,IA,Taylor
43607,41.647399,-83.606785,Toledo,OH,Lucas
19342,39.902633,-75.483224,Glen Mills,PA,Delaware
82723,44.04631,-104.360224,Osage,WY,Weston
43938,40.358475,-80.762054,Mingo Junction,OH,Jefferson
15831,41.304782,-78.621286,Dagus Mines,PA,Elk
92170,33.016928,-116.846046,San Diego,CA,San Diego
86046,35.915563,-112.366031,Williams,AZ,Coconino
17347,39.942848,-76.552798,Mount Wolf,PA,York
60021,42.213058,-88.250406,Fox River Grove,IL,Mchenry
42024,37.081273,-89.01148,Barlow,KY,Ballard
49236,42.061881,-83.957586,Clinton,MI,Lenawee
80614,39.80797,-104.407918,Eastlake,CO,Adams
15772,40.869654,-78.900483,Rossiter,PA,Indiana
81138,37.197731,-105.429395,Jaroso,CO,Costilla
97460,43.138755,-124.127089,Norway,OR,Coos
79779,31.459448,-103.188993,Royalty,TX,Ward
93657,36.897408,-119.829053,Sanger,CA,Fresno
76638,31.565099,-97.43051,Crawford,TX,Mclennan
93654,36.669807,-119.398857,Reedley,CA,Fresno
19898,39.564499,-75.597047,Wilmington,DE,New Castle
64433,40.352306,-94.900456,Conception,MO,Nodaway
38381,35.343473,-88.942458,Toone,TN,Hardeman
77670,30.054793,-93.903108,Vidor,TX,Orange
69219,42.542631,-101.126167,Nenzel,NE,Cherry
6242,41.927524,-72.041112,Eastford,CT,Windham
63338,38.750949,-90.536784,Cottleville,MO,Saint Charles
71051,32.361547,-93.523207,Elm Grove,LA,Bossier
38569,36.124389,-85.859146,Lancaster,TN,Smith
20151,38.88668,-77.44566,Chantilly,VA,Fairfax
72385,35.296539,-90.772419,Twist,AR,Cross
66544,39.689591,-96.495257,Vermillion,KS,Marshall
25972,37.975595,-80.426874,Leslie,WV,Greenbrier
49051,42.1779,-85.234287,East Leroy,MI,Calhoun
78279,29.437532,-98.461582,San Antonio,TX,Bexar
12910,44.865209,-73.577683,Altona,NY,Clinton
35441,32.855347,-87.721868,Akron,AL,Hale
98203,47.946017,-122.231795,Everett,WA,Snohomish
72952,35.546818,-94.291296,Rudy,AR,Crawford
98392,47.732624,-122.564557,Suquamish,WA,Kitsap
35281,33.544622,-86.929208,Birmingham,AL,Jefferson
65807,37.158811,-93.348705,Springfield,MO,Greene
49437,43.42404,-86.339517,Montague,MI,Muskegon
3064,42.774237,-71.628611,Nashua,NH,Hillsborough
14534,43.060229,-77.520692,Pittsford,NY,Monroe
15464,39.933738,-79.432647,Mill Run,PA,Fayette
37723,35.951478,-84.812093,Crab Orchard,TN,Cumberland
11356,40.784369,-73.843641,College Point,NY,Queens
92515,33.752886,-116.055617,Riverside,CA,Riverside
85706,32.093314,-110.879684,Tucson,AZ,Pima
49047,41.961597,-86.019304,Dowagiac,MI,Cass
12784,41.714311,-74.584061,Thompsonville,NY,Sullivan
47683,38.281095,-87.37734,Somerville,IN,Gibson
62532,39.780021,-88.980838,Elwin,IL,Macon
38060,35.234809,-89.489977,Oakland,TN,Fayette
75127,32.685045,-95.79425,Fruitvale,TX,Van Zandt
68649,41.54148,-96.685416,North Bend,NE,Dodge
92363,34.642102,-115.558733,Needles,CA,San Bernardino
5073,43.630897,-72.48908,Taftsville,VT,Windsor
92554,33.521993,-115.915905,Moreno Valley,CA,Riverside
2553,41.67336,-70.608047,Monument Beach,MA,Barnstable
96709,23.573339,-164.701172,Kapolei,HI,Honolulu
13814,42.603574,-75.528221,North Norwich,NY,Chenango
95487,38.463088,-122.989975,Vineburg,CA,Sonoma
15259,40.434436,-80.024817,Pittsburgh,PA,Allegheny
28082,35.346285,-80.541088,Kannapolis,NC,Cabarrus
97254,45.596678,-122.59418,Portland,OR,Multnomah
59710,45.193898,-112.056807,Alder,MT,Madison
55472,45.015914,-93.47188,Minneapolis,MN,Hennepin
91523,33.786594,-118.298662,Burbank,CA,Los Angeles
78946,30.09469,-96.795224,Ledbetter,TX,Fayette
63304,38.731527,-90.704616,Saint Charles,MO,Saint Charles
85367,32.656575,-114.404216,Yuma,AZ,Yuma
35201,33.456412,-86.801904,Birmingham,AL,Jefferson
50606,42.752653,-91.69556,Arlington,IA,Fayette
96034,41.441483,-122.699937,Gazelle,CA,Siskiyou
60170,42.025776,-88.425931,Plato Center,IL,Kane
60558,41.811929,-87.68732,Western Springs,IL,Cook
6151,41.791776,-72.718832,Hartford,CT,Hartford
95666,38.556287,-120.352661,Pioneer,CA,Amador
55722,47.377503,-93.385597,Coleraine,MN,Itasca
20047,38.893311,-77.014647,Washington,DC,District Of Columbia
32228,30.38239,-81.436859,Jacksonville,FL,Duval
98527,46.637057,-123.884996,Bay Center,WA,Pacific
25911,37.758469,-81.167549,Raleigh,WV,Raleigh
62273,38.884459,-89.444898,Pierron,IL,Bond
27498,36.080707,-80.0244,Greensboro,NC,Guilford
47996,40.388656,-86.894908,West Lafayette,IN,Tippecanoe
70710,30.362992,-91.263088,Addis,LA,West Baton Rouge
30427,32.066649,-82.012344,Glennville,GA,Tattnall
41017,39.029983,-84.55902,Ft Mitchell,KY,Kenton
55188,45.005902,-93.105869,Saint Paul,MN,Ramsey
17503,40.0185,-76.297582,Bart,PA,Lancaster
59464,46.974485,-109.693316,Moore,MT,Fergus
12240,42.614852,-73.970812,Albany,NY,Albany
801,18.322285,-64.963715,St Thomas,VI,Saint Thomas
34475,29.154639,-82.304525,Ocala,FL,Marion
1867,42.537065,-71.107172,Reading,MA,Middlesex
966,18.396815,-66.114889,Guaynabo,PR,Guaynabo
73741,36.546639,-98.271091,Helena,OK,Alfalfa
59911,48.145854,-113.921121,Bigfork,MT,Flathead
43073,39.996516,-82.754034,Summit Station,OH,Licking
37416,35.102747,-85.182663,Chattanooga,TN,Hamilton
44081,41.768495,-81.14626,Perry,OH,Lake
14223,42.974607,-78.850507,Buffalo,NY,Erie
49895,46.291471,-86.671351,Wetmore,MI,Alger
98035,47.432251,-121.803388,Kent,WA,King
99573,61.470966,-144.991027,Copper Center,AK,Valdez Cordova
38603,34.741457,-89.163282,Ashland,MS,Benton
46373,41.453965,-87.453086,Saint John,IN,Lake
47716,37.997128,-87.574963,Evansville,IN,Vanderburgh
33544,28.271989,-82.284738,Zephyrhills,FL,Pasco
4864,44.086333,-69.188163,Warren,ME,Knox
23824,37.12237,-77.978923,Blackstone,VA,Nottoway
75105,32.243775,-96.414423,Chatfield,TX,Navarro
14626,43.190312,-77.720018,Rochester,NY,Monroe
28904,35.071416,-83.778309,Hayesville,NC,Clay
63648,37.82135,-90.692287,Irondale,MO,Washington
32712,28.731322,-81.537602,Apopka,FL,Orange
46047,40.284101,-85.945505,Hobbs,IN,Tipton
80261,39.737929,-104.985036,Denver,CO,Denver
28555,34.934067,-77.280066,Maysville,NC,Jones
86538,35.237487,-109.52295,Many Farms,AZ,Apache
93447,35.75624,-120.693505,Paso Robles,CA,San Luis Obispo
75092,33.637151,-96.618419,Sherman,TX,Grayson
19489,39.983153,-75.748055,Norristown,PA,Chester
73661,35.155439,-99.059758,Rocky,OK,Washita
42451,37.8497,-87.378292,Reed,KY,Henderson
75487,33.175662,-95.216724,Talco,TX,Franklin
65679,36.579153,-93.126321,Kirbyville,MO,Taney
13847,42.183045,-74.925617,Trout Creek,NY,Delaware
56468,46.401244,-94.237094,Nisswa,MN,Crow Wing
91399,33.786594,-118.298662,Woodland Hills,CA,Los Angeles
17550,40.072108,-76.57779,Maytown,PA,Lancaster
67632,39.334908,-99.39947,Damar,KS,Rooks
59922,48.17669,-114.234902,Lakeside,MT,Flathead
56325,45.563556,-94.946428,Elrosa,MN,Stearns
90510,33.786594,-118.298662,Torrance,CA,Los Angeles
83850,47.494941,-116.041059,Pinehurst,ID,Shoshone
87020,35.09985,-107.850191,Grants,NM,Cibola
59256,48.694565,-104.552352,Raymond,MT,Sheridan
95250,38.243158,-120.436953,Sheep Ranch,CA,Calaveras
79929,31.694842,-106.299987,El Paso,TX,El Paso
66063,38.899901,-94.831991,Olathe,KS,Johnson
34981,27.391213,-80.374042,Fort Pierce,FL,Saint Lucie
19129,40.022911,-75.167771,Philadelphia,PA,Philadelphia
21403,39.007361,-76.584637,Annapolis,MD,Anne Arundel
69357,41.874333,-103.803504,Mitchell,NE,Scotts Bluff
5819,44.426455,-72.114155,Saint Johnsbury,VT,Caledonia
4068,43.848322,-70.935379,Porter,ME,Oxford
24076,36.597733,-80.36824,Claudville,VA,Patrick
26209,38.387966,-79.990585,Snowshoe,WV,Pocahontas
92378,34.839964,-115.967051,Rimforest,CA,San Bernardino
94912,38.068036,-122.740988,San Rafael,CA,Marin
95245,38.29138,-120.571875,Mokelumne Hill,CA,Calaveras
41260,37.810703,-82.766705,Thelma,KY,Johnson
13404,43.818705,-75.480342,Martinsburg,NY,Lewis
79243,33.616428,-100.779303,Mcadoo,TX,Dickens
77440,28.754719,-95.945896,Elmaton,TX,Matagorda
47174,38.22588,-86.490751,Sulphur,IN,Crawford
53290,43.037263,-87.914034,Milwaukee,WI,Milwaukee
4786,46.793032,-68.105233,Washburn,ME,Aroostook
33338,26.145724,-80.448254,Fort Lauderdale,FL,Broward
64056,39.103572,-94.32281,Independence,MO,Jackson
17730,41.10891,-76.877491,Dewart,PA,Northumberland
20660,38.363994,-76.694102,Morganza,MD,Saint Marys
46513,41.361903,-86.444254,Donaldson,IN,Marshall
77457,28.649645,-95.962269,Matagorda,TX,Matagorda
77217,29.83399,-95.434241,Houston,TX,Harris
81235,38.026256,-107.276581,Lake City,CO,Hinsdale
20546,38.890976,-77.021092,Washington,DC,District Of Columbia
60949,40.370897,-88.152546,Ludlow,IL,Champaign
5144,43.592039,-72.588407,Chester Depot,VT,Windsor
60622,41.811929,-87.68732,Chicago,IL,Cook
66201,39.007755,-94.679486,Shawnee Mission,KS,Johnson
72460,36.337228,-91.009405,Ravenden Springs,AR,Randolph
2070,42.180048,-71.08923,Sheldonville,MA,Norfolk
30260,33.58016,-84.326757,Morrow,GA,Clayton
12841,43.646953,-73.508308,Huletts Landing,NY,Washington
48117,42.0413,-83.428904,Carleton,MI,Monroe
39151,32.106173,-89.783633,Puckett,MS,Rankin
72572,35.953043,-91.283897,Saffell,AR,Lawrence
4685,44.213118,-68.396479,Swans Island,ME,Hancock
71477,31.399855,-92.604193,Tioga,LA,Rapides
42338,37.552013,-86.77762,Dundee,KY,Ohio
29033,33.868493,-81.294081,Cayce,SC,Lexington
18764,41.272248,-75.880146,Wilkes Barre,PA,Luzerne
31750,31.748753,-83.235412,Fitzgerald,GA,Ben Hill
44273,41.044552,-81.960694,Seville,OH,Medina
96121,40.196745,-120.367586,Milford,CA,Lassen
66072,38.255903,-94.852908,Parker,KS,Linn
56515,46.294519,-95.707485,Battle Lake,MN,Otter Tail
67052,37.663432,-97.579616,Goddard,KS,Sedgwick
19172,39.947321,-75.150011,Philadelphia,PA,Philadelphia
53597,43.183972,-89.322655,Waunakee,WI,Dane
74082,36.450115,-95.881381,Vera,OK,Washington
71450,31.78699,-93.361235,Marthaville,LA,Natchitoches
72462,36.351441,-90.780125,Reyno,AR,Randolph
12854,43.452517,-73.34095,North Granville,NY,Washington
27824,35.325223,-76.028472,Engelhard,NC,Hyde
15438,40.066729,-79.844514,Fayette City,PA,Fayette
45011,39.425137,-84.472925,Hamilton,OH,Butler
94022,37.238842,-121.885066,Los Altos,CA,Santa Clara
16301,41.330725,-79.775153,Oil City,PA,Venango
94065,37.53256,-122.247806,Redwood City,CA,San Mateo
92841,33.640302,-117.769442,Garden Grove,CA,Orange
1741,42.446396,-71.459405,Carlisle,MA,Middlesex
97350,44.700127,-122.074043,Idanha,OR,Marion
6001,41.757944,-72.728272,Avon,CT,Hartford
77995,29.297302,-97.047148,Yoakum,TX,Lavaca
17257,40.070789,-77.45983,Shippensburg,PA,Cumberland
49689,44.330169,-86.027194,Wellston,MI,Manistee
44233,41.23648,-81.736072,Hinckley,OH,Medina
78406,27.766605,-97.528579,Corpus Christi,TX,Nueces
14775,42.230461,-79.42678,Ripley,NY,Chautauqua
59870,46.320508,-114.047154,Stevensville,MT,Ravalli
767,18.045522,-65.886988,Yabucoa,PR,Yabucoa
95150,37.189396,-121.705327,San Jose,CA,Santa Clara
40806,36.879484,-83.304537,Baxter,KY,Harlan
55369,45.128414,-93.458932,Osseo,MN,Hennepin
28390,35.189079,-78.977243,Spring Lake,NC,Cumberland
76864,31.551904,-98.639178,Mullin,TX,Mills
48082,42.526935,-82.884117,Saint Clair Shores,MI,Macomb
63869,36.679465,-89.657159,New Madrid,MO,New Madrid
24935,37.648541,-80.877395,Forest Hill,WV,Summers
85371,34.031791,-114.390171,Poston,AZ,La Paz
80928,38.645078,-104.395746,Colorado Springs,CO,El Paso
34429,28.904358,-82.596051,Crystal River,FL,Citrus
35207,33.572576,-86.837341,Birmingham,AL,Jefferson
11767,40.846678,-73.146763,Nesconset,NY,Suffolk
56521,46.979328,-95.912192,Callaway,MN,Becker
41622,37.512564,-82.818388,Eastern,KY,Floyd
15618,40.497049,-79.489055,Avonmore,PA,Westmoreland
74547,34.982457,-95.544861,Hartshorne,OK,Pittsburg
25637,37.84639,-82.048494,Mount Gay,WV,Logan
6840,41.162209,-73.501267,New Canaan,CT,Fairfield
24226,37.159677,-82.358274,Clinchco,VA,Dickenson
25951,37.645544,-80.864634,Hinton,WV,Summers
48607,43.431875,-83.933672,Saginaw,MI,Saginaw
36505,30.939368,-88.015868,Axis,AL,Mobile
52658,40.7129,-91.23819,Wever,IA,Lee
27564,36.101529,-78.713346,Creedmoor,NC,Granville
45249,39.269226,-84.330686,Cincinnati,OH,Hamilton
94927,38.463088,-122.989975,Rohnert Park,CA,Sonoma
55969,44.099266,-91.819882,Rollingstone,MN,Winona
71932,34.537164,-94.0972,Board Camp,AR,Polk
57744,43.838528,-103.19146,Hermosa,SD,Custer
24628,37.287992,-82.027408,Maxie,VA,Buchanan
50363,41.672687,-93.572173,Des Moines,IA,Polk
48215,42.239933,-83.150823,Detroit,MI,Wayne
18830,41.820346,-75.80463,Little Meadows,PA,Susquehanna
43212,39.969036,-83.011389,Columbus,OH,Franklin
30368,33.844371,-84.47405,Atlanta,GA,Fulton
58212,47.766493,-98.043481,Aneta,ND,Nelson
75859,31.837751,-96.23408,Streetman,TX,Freestone
62222,38.439983,-89.983521,Belleville,IL,Saint Clair
94611,37.847076,-122.222278,Oakland,CA,Alameda
31826,32.791278,-84.733595,Shiloh,GA,Harris
26589,39.6572,-80.366185,Wadestown,WV,Monongalia
15762,40.600962,-78.82209,Nicktown,PA,Cambria
35670,34.436256,-86.729737,Somerville,AL,Morgan
73042,35.042316,-98.233336,Gracemont,OK,Caddo
16683,40.402523,-77.966977,Spruce Creek,PA,Huntingdon
67454,38.696847,-98.138181,Kanopolis,KS,Ellsworth
56576,46.443365,-95.792367,Richville,MN,Otter Tail
91331,33.786594,-118.298662,Pacoima,CA,Los Angeles
53225,43.115159,-88.040188,Milwaukee,WI,Milwaukee
1069,42.176131,-72.31457,Palmer,MA,Hampden
75426,33.61306,-95.096511,Clarksville,TX,Red River
28815,35.620335,-82.528558,Asheville,NC,Buncombe
43002,39.969036,-83.011389,Amlin,OH,Franklin
32352,30.665715,-84.75363,Quincy,FL,Gadsden
14870,42.159759,-77.382462,Painted Post,NY,Steuben
61843,40.137239,-88.208104,Fisher,IL,Champaign
11954,40.922326,-72.637078,Montauk,NY,Suffolk
925,18.401055,-66.049773,San Juan,PR,San Juan
45657,38.875128,-83.159778,Otway,OH,Scioto
37024,35.874553,-86.907565,Brentwood,TN,Williamson
27237,35.467567,-79.165314,Cumnock,NC,Lee
61125,42.325364,-89.170527,Rockford,IL,Winnebago
55371,45.740703,-93.63663,Princeton,MN,Mille Lacs
63137,38.746799,-90.213103,Saint Louis,MO,Saint Louis
61555,40.56071,-89.650232,Pekin,IL,Tazewell
10629,41.119008,-73.732996,White Plains,NY,Westchester
72655,35.940667,-93.065393,Mount Judea,AR,Newton
89520,40.541218,-119.586934,Reno,NV,Washoe
53550,42.564434,-89.507906,Juda,WI,Green
43101,39.466524,-82.754731,Adelphi,OH,Ross
62702,39.831699,-89.646507,Springfield,IL,Sangamon
7072,40.828399,-74.076055,Carlstadt,NJ,Bergen
52324,42.049832,-91.788933,Palo,IA,Linn
49077,42.245412,-85.529858,Oshtemo,MI,Kalamazoo
35979,34.839084,-85.619582,Higdon,AL,Jackson
7018,40.7566,-74.216839,East Orange,NJ,Essex
71418,32.102189,-92.11767,Columbia,LA,Caldwell
27717,36.051155,-78.857651,Durham,NC,Durham
18460,41.259242,-75.373122,South Sterling,PA,Wayne
21084,39.552706,-76.419734,Jarrettsville,MD,Harford
2767,41.9367,-71.048941,Raynham,MA,Bristol
37310,35.2637,-84.793619,Charleston,TN,Bradley
27616,35.805765,-78.688301,Raleigh,NC,Wake
40171,37.802295,-86.414768,Union Star,KY,Breckinridge
27155,36.027482,-80.20728,Winston Salem,NC,Forsyth
63638,37.232968,-90.969767,Ellington,MO,Reynolds
78231,29.437532,-98.461582,San Antonio,TX,Bexar
7933,40.689339,-74.472198,Gillette,NJ,Morris
50014,42.045748,-93.647237,Ames,IA,Story
80047,39.738752,-104.408349,Aurora,CO,Arapahoe
31816,32.91107,-84.615478,Manchester,GA,Meriwether
67231,37.556692,-97.410154,Wichita,KS,Sedgwick
11935,40.922326,-72.637078,Cutchogue,NY,Suffolk
71275,32.597482,-92.708389,Simsboro,LA,Lincoln
2456,42.446396,-71.459405,New Town,MA,Middlesex
87532,36.424214,-106.251469,Espanola,NM,Rio Arriba
87455,36.500162,-108.233548,Newcomb,NM,San Juan
78827,28.448923,-99.759184,Asherton,TX,Dimmit
30184,34.264331,-84.753929,White,GA,Bartow
49095,41.936454,-85.885793,Vandalia,MI,Cass
66507,39.070808,-96.131584,Maple Hill,KS,Wabaunsee
49872,45.992476,-87.079231,Perkins,MI,Delta
62415,38.710336,-87.703639,Birds,IL,Lawrence
49440,43.233764,-86.232858,Muskegon,MI,Muskegon
22060,38.714562,-77.167886,Fort Belvoir,VA,Fairfax
29031,34.567049,-81.481439,Carlisle,SC,Union
87525,36.536648,-105.580985,Taos Ski Valley,NM,Taos
5674,44.217175,-72.820401,Warren,VT,Washington
45617,39.280388,-83.158991,Bourneville,OH,Ross
56056,43.978335,-94.614361,La Salle,MN,Watonwan
80841,38.82469,-104.562027,U S A F Academy,CO,El Paso
64086,38.944006,-94.288086,Lees Summit,MO,Jackson
78374,27.979489,-97.538993,Portland,TX,San Patricio
22225,38.880811,-77.11295,Arlington,VA,Arlington
60113,41.931158,-88.956564,Creston,IL,Ogle
54837,45.526263,-92.429333,Frederic,WI,Polk
28525,35.134409,-77.688191,Deep Run,NC,Lenoir
50140,40.618769,-93.927187,Lamoni,IA,Decatur
56458,47.108153,-94.921064,Lake George,MN,Hubbard
27695,35.797692,-78.625265,Raleigh,NC,Wake
25985,37.648541,-80.877395,Sandstone,WV,Summers
47325,39.682946,-84.995266,Brownsville,IN,Union
95616,38.521776,-121.749016,Davis,CA,Yolo
92599,33.752886,-116.055617,Perris,CA,Riverside
75666,32.301898,-94.928795,Laird Hill,TX,Rusk
93099,34.032383,-119.1343,Simi Valley,CA,Ventura
62312,39.611334,-90.894104,Barry,IL,Pike
93130,34.262834,-119.848555,Santa Barbara,CA,Santa Barbara
70642,31.111979,-93.200936,Fullerton,LA,Vernon
3755,43.861077,-72.120314,Hanover,NH,Grafton
89712,39.167833,-119.776409,Carson City,NV,Carson City
65556,37.85021,-92.328289,Richland,MO,Pulaski
4489,44.922368,-68.686796,Stillwater,ME,Penobscot
14141,42.538335,-78.685169,Springville,NY,Erie
60093,42.112176,-87.940168,Winnetka,IL,Cook
38651,34.875133,-89.985853,Nesbit,MS,De Soto
57775,44.068731,-102.222633,Quinn,SD,Pennington
36331,31.297817,-85.90364,Enterprise,AL,Coffee
83347,42.684923,-113.790133,Paul,ID,Minidoka
85236,33.299317,-111.69546,Higley,AZ,Maricopa
75779,31.794191,-95.661964,Neches,TX,Anderson
50608,42.58243,-92.95988,Austinville,IA,Butler
62894,38.212153,-89.043552,Waltonville,IL,Jefferson
49931,47.105336,-88.548157,Houghton,MI,Houghton
10703,40.959347,-73.881329,Yonkers,NY,Westchester
48824,42.728334,-84.488226,East Lansing,MI,Ingham
27014,35.819175,-80.54826,Cooleemee,NC,Davie
73050,35.941924,-97.25565,Langston,OK,Logan
27099,36.027482,-80.20728,Rural Hall,NC,Forsyth
13633,44.49891,-75.477156,De Peyster,NY,Saint Lawrence
62540,39.500009,-89.416708,Kincaid,IL,Christian
11733,40.922326,-72.637078,East Setauket,NY,Suffolk
93670,36.471833,-119.259352,Yettem,CA,Tulare
31119,33.891251,-84.07456,Atlanta,GA,Dekalb
1886,42.446396,-71.459405,Westford,MA,Middlesex
42629,36.945046,-85.124561,Jamestown,KY,Russell
42528,37.190615,-84.983484,Dunnville,KY,Casey
38620,34.25082,-89.962994,Courtland,MS,Panola
31709,32.040432,-84.215282,Americus,GA,Sumter
78671,30.289559,-98.706737,Stonewall,TX,Gillespie
17072,40.230601,-77.079425,New Kingstown,PA,Cumberland
49267,41.772724,-83.704835,Ottawa Lake,MI,Monroe
50107,42.035745,-94.242288,Grand Junction,IA,Greene
33081,26.145724,-80.448254,Hollywood,FL,Broward
13077,42.678012,-76.175275,Homer,NY,Cortland
5737,43.713218,-72.925199,Chittenden,VT,Rutland
61852,39.91593,-88.034929,Longview,IL,Champaign
46384,41.490545,-87.076094,Valparaiso,IN,Porter
60690,41.811929,-87.68732,Chicago,IL,Cook
25425,39.314617,-77.789387,Harpers Ferry,WV,Jefferson
48802,43.389262,-84.666661,Alma,MI,Gratiot
12935,44.801467,-73.739157,Ellenburg Depot,NY,Clinton
19094,39.876862,-75.346083,Woodlyn,PA,Delaware
30424,32.767634,-81.629062,Dover,GA,Screven
16102,40.9613,-80.408502,New Castle,PA,Lawrence
32426,30.935644,-85.346802,Campbellton,FL,Jackson
52407,42.079415,-91.599215,Cedar Rapids,IA,Linn
8026,39.833114,-74.967496,Gibbsboro,NJ,Camden
95949,39.110986,-121.128336,Grass Valley,CA,Nevada
27925,35.936934,-76.203339,Columbia,NC,Tyrrell
16111,41.524812,-80.32056,Atlantic,PA,Crawford
49071,42.244501,-85.805041,Mattawan,MI,Van Buren
53911,43.336846,-89.36061,Arlington,WI,Columbia
27921,36.389961,-76.199736,Camden,NC,Camden
23803,37.21713,-77.389253,Petersburg,VA,Petersburg City
95919,39.425005,-121.273889,Brownsville,CA,Yuba
26334,39.125078,-80.017982,Brownton,WV,Barbour
94941,37.886325,-122.562937,Mill Valley,CA,Marin
81611,39.169324,-106.776744,Aspen,CO,Pitkin
51536,41.389941,-95.372891,Hancock,IA,Pottawattamie
15668,40.423293,-79.663288,Murrysville,PA,Westmoreland
79237,34.869376,-100.658936,Hedley,TX,Donley
43344,40.427182,-83.352079,Richwood,OH,Union
27636,35.797692,-78.625265,Raleigh,NC,Wake
22578,37.688601,-76.361585,White Stone,VA,Lancaster
50059,42.036334,-94.396956,Cooper,IA,Greene
58445,47.457057,-98.702131,Grace City,ND,Foster
25010,37.997105,-81.71704,Bald Knob,WV,Boone
6103,41.766349,-72.674636,Hartford,CT,Hartford
94027,37.450627,-122.199439,Atherton,CA,San Mateo
65627,36.560345,-93.014906,Cedarcreek,MO,Taney
23156,37.544151,-76.684306,Shacklefords,VA,King And Queen
43944,40.441964,-80.791768,Richmond,OH,Jefferson
61126,42.325364,-89.170527,Rockford,IL,Winnebago
31534,31.571596,-82.854631,Douglas,GA,Coffee
11970,40.922326,-72.637078,South Jamesport,NY,Suffolk
48603,43.460115,-84.026587,Saginaw,MI,Saginaw
15752,40.5412,-79.282047,Kent,PA,Indiana
34997,27.108081,-80.230818,Stuart,FL,Martin
75472,32.917861,-95.898171,Point,TX,Rains
72429,35.503918,-90.944428,Fisher,AR,Poinsett
90293,33.786594,-118.298662,Playa Del Rey,CA,Los Angeles
27879,35.567478,-77.280169,Simpson,NC,Pitt
46124,39.430795,-86.099838,Edinburgh,IN,Johnson
46528,41.624763,-85.839139,Goshen,IN,Elkhart
72023,34.826103,-91.931526,Cabot,AR,Lonoke
2141,42.368673,-71.083596,Cambridge,MA,Middlesex
19485,40.211896,-75.35586,Valley Forge,PA,Montgomery
936,18.410462,-66.060533,San Juan,PR,San Juan
2646,41.845717,-70.053544,Harwich Port,MA,Barnstable
33162,25.92862,-80.182969,Miami,FL,Miami-Dade
27581,36.209675,-78.72704,Stem,NC,Granville
43082,40.167712,-82.869636,Westerville,OH,Delaware
48840,42.750324,-84.378655,Haslett,MI,Ingham
95064,36.988837,-122.059073,Santa Cruz,CA,Santa Cruz
22949,37.753,-78.859153,Lovingston,VA,Nelson
40340,37.866238,-84.579491,Nicholasville,KY,Jessamine
81505,39.14657,-108.626481,Grand Junction,CO,Mesa
91304,33.786594,-118.298662,Canoga Park,CA,Los Angeles
31004,32.946971,-83.800628,Bolingbroke,GA,Monroe
726,18.212965,-66.058033,Caguas,PR,Caguas
40299,38.176762,-85.521751,Louisville,KY,Jefferson
7847,40.876098,-74.695309,Kenvil,NJ,Morris
65062,38.484502,-91.621808,Mount Sterling,MO,Gasconade
85249,33.247861,-111.770161,Chandler,AZ,Maricopa
24476,38.179715,-79.141332,Steeles Tavern,VA,Augusta
66939,39.746555,-97.666524,Courtland,KS,Republic
80452,39.706574,-105.541583,Idaho Springs,CO,Clear Creek
65739,36.610226,-93.230334,Ridgedale,MO,Taney
25113,38.465777,-81.050662,Ivydale,WV,Clay
32034,30.60778,-81.682889,Fernandina Beach,FL,Nassau
55583,44.805487,-93.766524,Norwood,MN,Carver
92384,35.977703,-116.270561,Shoshone,CA,Inyo
75680,32.125654,-94.719095,Minden,TX,Rusk
29445,33.057972,-80.010088,Goose Creek,SC,Berkeley
10276,40.780751,-73.977182,New York,NY,New York
76875,31.668401,-100.047062,Rowena,TX,Runnels
40107,37.740827,-85.59479,Boston,KY,Nelson
99512,61.203954,-149.808426,Anchorage,AK,Anchorage
64858,36.90103,-94.532109,Racine,MO,Newton
64021,39.118071,-93.61919,Corder,MO,Lafayette
34251,27.372771,-82.225911,Myakka City,FL,Manatee
74850,35.028521,-96.235928,Lamar,OK,Hughes
46239,39.726493,-86.000482,Indianapolis,IN,Marion
30353,33.844371,-84.47405,Atlanta,GA,Fulton
14467,43.058863,-77.558902,Henrietta,NY,Monroe
64722,38.251879,-94.331993,Amoret,MO,Bates
12602,41.759905,-73.743714,Poughkeepsie,NY,Dutchess
52030,42.164053,-90.61074,Andrew,IA,Jackson
97902,42.915641,-117.497988,Arock,OR,Malheur
30901,33.456687,-81.969184,Augusta,GA,Richmond
44004,41.772583,-80.74349,Ashtabula,OH,Ashtabula
71355,31.09884,-91.874829,Moreauville,LA,Avoyelles
21612,38.74955,-76.273704,Bozman,MD,Talbot
83854,47.795737,-116.946395,Post Falls,ID,Kootenai
3108,42.952124,-71.653939,Manchester,NH,Hillsborough
52581,40.818638,-92.975714,Plano,IA,Appanoose
50220,41.790296,-94.06178,Perry,IA,Dallas
37878,35.584404,-83.992315,Tallassee,TN,Blount
33004,26.062416,-80.159667,Dania,FL,Broward
66863,37.888276,-96.242059,Neal,KS,Greenwood
80488,40.619661,-106.860746,Steamboat Springs,CO,Routt
54552,45.846473,-90.360373,Park Falls,WI,Price
73550,34.694028,-99.912395,Hollis,OK,Harmon
71346,31.092797,-92.439933,Lecompte,LA,Rapides
13850,42.055476,-76.027088,Vestal,NY,Broome
10547,41.281975,-73.797555,Mohegan Lake,NY,Westchester
59722,46.401859,-112.642136,Deer Lodge,MT,Powell
37166,35.958503,-85.835635,Smithville,TN,Dekalb
21282,39.438964,-76.592139,Baltimore,MD,Baltimore
3869,43.16136,-70.942666,Rollinsford,NH,Strafford
68717,42.429295,-97.212986,Belden,NE,Cedar
68854,41.015778,-98.008324,Marquette,NE,Hamilton
42445,37.140606,-87.865635,Princeton,KY,Caldwell
18690,41.272248,-75.880146,Dallas,PA,Luzerne
29137,33.605723,-81.365813,Salley,SC,Aiken
44709,40.80488,-81.387905,Canton,OH,Stark
47863,39.580285,-87.46157,New Goshen,IN,Vigo
14111,42.583165,-78.91888,North Collins,NY,Erie
46355,41.359415,-87.27081,Leroy,IN,Lake
1542,42.220085,-71.914361,Rochdale,MA,Worcester
54624,43.480668,-91.133309,De Soto,WI,Vernon
74834,35.647953,-96.871215,Chandler,OK,Lincoln
61482,40.376602,-90.408961,Table Grove,IL,Fulton
14094,43.168463,-78.706886,Lockport,NY,Niagara
47618,37.997128,-87.574963,Inglefield,IN,Vanderburgh
45206,39.12616,-84.482642,Cincinnati,OH,Hamilton
55733,46.712582,-92.364896,Esko,MN,Carlton
38242,36.31586,-88.315916,Paris,TN,Henry
15851,41.095556,-78.886154,Reynoldsville,PA,Jefferson
58255,48.77178,-98.464102,Maida,ND,Cavalier
20689,38.556448,-76.541436,Sunderland,MD,Calvert
17036,40.340043,-76.782764,Hummelstown,PA,Dauphin
43748,39.684697,-82.302787,Junction City,OH,Perry
99111,46.959127,-117.505163,Colfax,WA,Whitman
11771,40.754757,-73.601772,Oyster Bay,NY,Nassau
48551,42.978995,-83.713124,Flint,MI,Genesee
45330,39.641558,-84.527613,Gratis,OH,Preble
37326,35.033927,-84.379169,Ducktown,TN,Polk
85017,33.276539,-112.18717,Phoenix,AZ,Maricopa
79027,34.530453,-102.262133,Dimmitt,TX,Castro
60425,41.811929,-87.68732,Glenwood,IL,Cook
24087,37.225683,-80.184842,Elliston,VA,Roanoke
11549,40.754757,-73.601772,Hempstead,NY,Nassau
56716,47.705082,-96.412,Crookston,MN,Polk
3103,42.942463,-71.463761,Manchester,NH,Hillsborough
61262,41.285461,-90.319658,Lynn Center,IL,Henry
67643,39.679281,-100.294812,Jennings,KS,Decatur
80021,39.885388,-105.11389,Broomfield,CO,Jefferson
93277,36.13188,-119.355559,Visalia,CA,Tulare
68456,40.938023,-97.292178,Utica,NE,Seward
7722,40.302848,-74.160911,Colts Neck,NJ,Monmouth
57109,43.674582,-96.79134,Sioux Falls,SD,Minnehaha
41538,37.470577,-82.348837,Jonancy,KY,Pike
25326,38.296818,-81.554655,Charleston,WV,Kanawha
14003,42.998052,-78.184813,Alabama,NY,Genesee
80631,40.384991,-104.680631,Greeley,CO,Weld
77836,30.526184,-96.658407,Caldwell,TX,Burleson
16226,40.79965,-79.420198,Ford City,PA,Armstrong
32317,30.479347,-84.346204,Tallahassee,FL,Leon
38876,34.235149,-88.333454,Tremont,MS,Itawamba
25019,38.465777,-81.050662,Bickmore,WV,Clay
89425,41.263287,-118.174506,Orovada,NV,Humboldt
57042,44.054223,-97.091339,Madison,SD,Lake
85749,32.263975,-110.74667,Tucson,AZ,Pima
28728,35.498797,-82.708024,Enka,NC,Buncombe
3218,43.417369,-71.373189,Barnstead,NH,Belknap
50554,42.821248,-94.835889,Laurens,IA,Pocahontas
35288,33.445808,-86.928542,Birmingham,AL,Jefferson
64465,39.609693,-94.387584,Lathrop,MO,Clinton
30609,33.946364,-83.37743,Athens,GA,Clarke
84046,40.990039,-109.704889,Manila,UT,Daggett
56728,48.774787,-96.942022,Hallock,MN,Kittson
70526,30.228294,-92.438484,Crowley,LA,Acadia
6339,41.492843,-71.965554,Ledyard,CT,New London
52585,41.20699,-92.126742,Richland,IA,Keokuk
38039,35.055153,-89.140622,Grand Junction,TN,Hardeman
85902,34.298092,-110.035185,Show Low,AZ,Navajo
75181,32.727857,-96.564919,Mesquite,TX,Dallas
62314,39.729666,-90.90981,Baylis,IL,Pike
38637,34.950609,-90.03355,Horn Lake,MS,De Soto
59915,47.696598,-114.214962,Elmo,MT,Lake
12719,41.486186,-74.915176,Barryville,NY,Sullivan
10032,40.839137,-73.942181,New York,NY,New York
21560,39.601008,-78.687137,Spring Gap,MD,Allegany
98351,47.207364,-122.772012,Longbranch,WA,Pierce
55037,46.014689,-92.938103,Hinckley,MN,Pine
65276,38.849273,-92.926931,Pilot Grove,MO,Cooper
33953,26.997956,-82.200524,Port Charlotte,FL,Charlotte
24217,37.130943,-82.344881,Bee,VA,Dickenson
24879,37.375246,-81.653889,Raysal,WV,Mcdowell
32145,29.68875,-81.406081,Hastings,FL,Saint Johns
39366,31.950645,-88.970738,Vossburg,MS,Jasper
22151,38.802858,-77.211556,Springfield,VA,Fairfax
31216,32.74857,-83.747721,Macon,GA,Bibb
41559,37.370376,-82.407751,Regina,KY,Pike
97458,43.020023,-124.136075,Myrtle Point,OR,Coos
73450,34.310191,-96.670349,Milburn,OK,Johnston
53267,43.044013,-87.909834,Milwaukee,WI,Milwaukee
27864,35.793,-77.633263,Pinetops,NC,Edgecombe
1103,42.103044,-72.590783,Springfield,MA,Hampden
94566,37.646081,-121.862128,Pleasanton,CA,Alameda
57057,44.021983,-97.129455,Rutland,SD,Lake
42720,37.121145,-85.370926,Cane Valley,KY,Adair
6472,41.379797,-72.772991,Northford,CT,New Haven
8882,40.445905,-74.381768,South River,NJ,Middlesex
88540,31.694842,-106.299987,El Paso,TX,El Paso
18249,40.975202,-76.0845,Sugarloaf,PA,Luzerne
84139,40.668068,-111.908297,Salt Lake City,UT,Salt Lake
45382,39.88133,-84.621617,West Manchester,OH,Preble
26631,38.706017,-80.736884,Napier,WV,Braxton
32140,29.611384,-81.73499,Florahome,FL,Putnam
4029,43.867223,-70.547159,Sebago,ME,Cumberland
58274,47.582141,-97.244353,Portland,ND,Traill
64077,39.234415,-94.024126,Orrick,MO,Ray
57386,44.522526,-98.040081,Yale,SD,Beadle
93255,35.63952,-117.988136,Onyx,CA,Kern
1833,42.72377,-70.981298,Georgetown,MA,Essex
66769,37.836666,-94.880482,Redfield,KS,Bourbon
38163,35.201738,-89.971538,Memphis,TN,Shelby
16345,41.926402,-79.090299,Russell,PA,Warren
83255,43.729598,-113.4544,Moore,ID,Butte
55953,43.506952,-92.942939,Lyle,MN,Mower
43013,40.115251,-82.690898,Croton,OH,Licking
84138,40.671614,-111.74828,Salt Lake City,UT,Salt Lake
36107,32.380587,-86.280718,Montgomery,AL,Montgomery
8073,39.862433,-74.725079,Rancocas,NJ,Burlington
63346,38.750949,-90.536784,Flinthill,MO,Saint Charles
56758,48.358371,-96.378062,Strandquist,MN,Marshall
83353,43.684047,-114.527235,Sun Valley,ID,Blaine
76098,32.895716,-97.563622,Azle,TX,Parker
51360,43.407002,-95.121813,Spirit Lake,IA,Dickinson
13616,43.951428,-75.860442,Calcium,NY,Jefferson
76402,32.215275,-98.207997,Stephenville,TX,Erath
75168,32.374937,-96.716638,Waxahachie,TX,Ellis
33831,27.955426,-81.951673,Bartow,FL,Polk
85605,31.891434,-109.706426,Bowie,AZ,Cochise
41338,37.398617,-83.704908,Island City,KY,Owsley
70646,30.11138,-92.945098,Hayes,LA,Calcasieu
89446,41.076358,-117.760165,Winnemucca,NV,Humboldt
45656,38.976464,-82.603687,Oak Hill,OH,Jackson
16249,40.746619,-79.496645,Rural Valley,PA,Armstrong
72774,35.98025,-94.198446,West Fork,AR,Washington
28791,35.346415,-82.525027,Hendersonville,NC,Henderson
64659,39.795407,-93.295805,Meadville,MO,Linn
37365,35.373473,-85.699601,Palmer,TN,Grundy
75615,32.51121,-94.783493,Longview,TX,Gregg
39502,30.415795,-89.068448,Gulfport,MS,Harrison
29292,34.005992,-80.970766,Columbia,SC,Richland
43223,39.969036,-83.011389,Columbus,OH,Franklin
90835,33.767817,-118.199401,Long Beach,CA,Los Angeles
6267,41.943902,-71.945253,South Woodstock,CT,Windham
65063,38.730467,-92.08044,New Bloomfield,MO,Callaway
26261,38.230265,-80.578921,Richwood,WV,Nicholas
47203,39.241129,-85.827439,Columbus,IN,Bartholomew
81413,38.881646,-107.795704,Cedaredge,CO,Delta
17726,41.122741,-77.431745,Castanea,PA,Clinton
57317,43.248832,-99.016376,Bonesteel,SD,Gregory
76519,30.973648,-96.964199,Burlington,TX,Milam
78133,29.801223,-98.220684,Canyon Lake,TX,Comal
72165,35.576231,-91.453861,Thida,AR,Independence
49826,46.348071,-87.043622,Rumely,MI,Alger
17764,41.306045,-77.571221,Renovo,PA,Clinton
29803,33.505914,-81.695053,Aiken,SC,Aiken
5352,42.782616,-73.067501,Stamford,VT,Bennington
29378,34.853013,-81.772738,Una,SC,Spartanburg
88583,31.694842,-106.299987,El Paso,TX,El Paso
61413,41.20188,-90.245619,Alpha,IL,Henry
37131,35.859565,-86.420958,Murfreesboro,TN,Rutherford
28134,35.07854,-80.891141,Pineville,NC,Mecklenburg
31824,32.076133,-84.543517,Preston,GA,Webster
63633,37.240134,-90.966089,Centerville,MO,Reynolds
77630,30.135425,-93.860282,Orange,TX,Orange
1354,42.522178,-72.624164,Northfield,MA,Franklin
26638,38.913649,-80.831256,Shock,WV,Gilmer
80468,39.953932,-106.093005,Parshall,CO,Grand
46807,41.042342,-85.14682,Fort Wayne,IN,Allen
18337,41.320051,-74.880639,Milford,PA,Pike
20404,38.899161,-77.008948,Washington,DC,District Of Columbia
4064,43.411837,-70.469526,Old Orchard Beach,ME,York
24024,37.274175,-79.95786,Roanoke,VA,Roanoke City
97050,45.647067,-120.76413,Rufus,OR,Sherman
29418,32.89295,-80.045849,North Charleston,SC,Charleston
62706,39.79885,-89.653399,Springfield,IL,Sangamon
32767,28.981525,-81.482049,Paisley,FL,Lake
23395,37.975567,-75.479748,Horntown,VA,Accomack
76450,33.092674,-98.64403,Graham,TX,Young
15007,40.434436,-80.024817,Bakerstown,PA,Allegheny
31025,32.360242,-83.749048,Elko,GA,Houston
25813,37.753437,-81.1973,Beaver,WV,Raleigh
2672,41.635635,-70.323307,West Hyannisport,MA,Barnstable
70032,29.956803,-89.987547,Arabi,LA,Saint Bernard
90091,33.786594,-118.298662,Los Angeles,CA,Los Angeles
14590,43.224693,-76.840547,Wolcott,NY,Wayne
93060,34.364943,-119.085704,Santa Paula,CA,Ventura
85268,33.276539,-112.18717,Fountain Hills,AZ,Maricopa
97388,44.885,-123.994219,Gleneden Beach,OR,Lincoln
99215,47.653568,-117.431742,Spokane,WA,Spokane
31768,31.183438,-83.789698,Moultrie,GA,Colquitt
40070,38.476096,-85.248914,Sulphur,KY,Henry
54473,44.605786,-89.356834,Rosholt,WI,Portage
6032,41.726769,-72.829543,Farmington,CT,Hartford
61324,41.771078,-89.412282,Eldena,IL,Lee
45099,39.440956,-84.575746,Monroe,OH,Butler
58703,48.299433,-101.606,Minot,ND,Ward
79235,34.015814,-101.381126,Floydada,TX,Floyd
25046,38.731737,-81.314633,Clio,WV,Roane
26354,39.336266,-80.015686,Grafton,WV,Taylor
59715,45.809998,-111.168212,Bozeman,MT,Gallatin
87415,36.813789,-108.047499,Flora Vista,NM,San Juan
99694,62.280436,-149.715167,Houston,AK,Matanuska Susitna
27042,36.340817,-80.055357,Pine Hall,NC,Stokes
60429,41.811929,-87.68732,Hazel Crest,IL,Cook
43231,40.084463,-82.933811,Columbus,OH,Franklin
10510,41.05978,-73.829802,Briarcliff Manor,NY,Westchester
57366,43.383849,-97.915618,Parkston,SD,Hutchinson
56637,47.615375,-93.837811,Talmoon,MN,Itasca
4765,45.999084,-68.443112,Patten,ME,Penobscot
36741,32.006129,-86.981703,Furman,AL,Wilcox
70755,30.574555,-91.548373,Livonia,LA,Pointe Coupee
32124,29.14192,-81.140241,Daytona Beach,FL,Volusia
91118,33.786594,-118.298662,San Marino,CA,Los Angeles
90072,33.786594,-118.298662,Los Angeles,CA,Los Angeles
37705,36.202528,-84.068808,Andersonville,TN,Anderson
3803,42.92703,-71.444752,Portsmouth,NH,Rockingham
88023,32.819788,-107.969586,Bayard,NM,Grant
62850,38.519401,-88.536564,Johnsonville,IL,Wayne
6260,41.862904,-71.887712,Putnam,CT,Windham
36374,31.574779,-85.536957,Skipperville,AL,Dale
33160,25.944859,-80.139067,North Miami Beach,FL,Miami-Dade
11713,40.922326,-72.637078,Bellport,NY,Suffolk
32509,30.464324,-87.340262,Pensacola,FL,Escambia
11390,40.651378,-73.870779,Flushing,NY,Queens
68415,40.050592,-96.801542,Odell,NE,Gage
65014,38.393844,-91.520173,Bland,MO,Gasconade
65261,39.425165,-92.908657,Keytesville,MO,Chariton
88590,31.694842,-106.299987,El Paso,TX,El Paso
75685,32.183774,-94.308713,Panola,TX,Panola
22576,37.688877,-76.431553,Weems,VA,Lancaster
8341,39.530779,-74.940036,Minotola,NJ,Atlantic
56277,44.760343,-95.032641,Olivia,MN,Renville
